[
  {
    "title": "創辦人 — 吳哲宇 Che-Yu Wu",
    "lat": 25.033,
    "lng": 121.565,
    "category": "about",
    "region": "north",
    "link": "/about/%E5%89%B5%E8%BE%A6%E4%BA%BA",
    "lang": "zh-TW",
    "desc": "從程式碼到詩意：一位台灣藝術家的國際突破之路",
    "city": "台北"
  },
  {
    "title": "台灣官方網站資源：從25個網站到數位政府強國的30年奇蹟",
    "lat": 25.034476,
    "lng": 121.560751,
    "category": "about",
    "region": "north",
    "link": "/about/%E5%8F%B0%E7%81%A3%E5%AE%98%E6%96%B9%E7%B6%B2%E7%AB%99%E8%B3%87%E6%BA%90%E9%87%8D%E5%AF%AB",
    "lang": "zh-TW",
    "desc": "1996年，台灣為了參加網際網路世界博覽會，25個政府機關建置了第一批官方網站。30年後的今天，這座島嶼成為全球數位政府的典範——從網路報稅到單一入口網站，從開放資料到AI語料庫，探索台灣如何用官方網站寫下數位轉型的傳奇。",
    "city": "台北"
  },
  {
    "title": "台灣傳統藝術",
    "lat": 22.996,
    "lng": 120.161,
    "category": "art",
    "region": "south",
    "link": "/art/%E5%8F%B0%E7%81%A3%E5%82%B3%E7%B5%B1%E8%97%9D%E8%A1%93",
    "lang": "zh-TW",
    "desc": "21世紀最大的文化產業奇蹟：年產值千億的霹靂布袋戲帝國，如何從鄉間謝神小戲變成征服全球的文化軟實力？",
    "city": "台南"
  },
  {
    "title": "台灣原住民當代藝術",
    "lat": 25.037804,
    "lng": 121.564071,
    "category": "art",
    "region": "north",
    "link": "/art/%E5%8F%B0%E7%81%A3%E5%8E%9F%E4%BD%8F%E6%B0%91%E7%95%B6%E4%BB%A3%E8%97%9D%E8%A1%93",
    "lang": "zh-TW",
    "desc": "從傳統工藝到當代創作，探索台灣原住民藝術家如何在全球藝術舞台上發聲，重新定義原住民身份與當代藝術的對話",
    "city": "台北"
  },
  {
    "title": "台灣建築",
    "lat": 25.027804,
    "lng": 121.56125,
    "category": "art",
    "region": "north",
    "link": "/art/%E5%8F%B0%E7%81%A3%E5%BB%BA%E7%AF%89",
    "lang": "zh-TW",
    "desc": "從石板屋到摩天樓：一座島嶼的建築時光之旅",
    "city": "台北"
  },
  {
    "title": "台灣新媒體藝術",
    "lat": 25.038913,
    "lng": 121.561189,
    "category": "art",
    "region": "north",
    "link": "/art/%E5%8F%B0%E7%81%A3%E6%96%B0%E5%AA%92%E9%AB%94%E8%97%9D%E8%A1%93",
    "lang": "zh-TW",
    "desc": "從1980年代錄像先驅到威尼斯VR大獎，16位關鍵藝術家與40年數位藝術革命的完整脈絡。台灣如何用程式碼寫詩，在國際藝術版圖刻下自己的名字。",
    "city": "台北"
  },
  {
    "title": "台灣水彩畫的百年流變",
    "lat": 24.804,
    "lng": 120.969,
    "category": "art",
    "region": "north",
    "link": "/art/%E5%8F%B0%E7%81%A3%E6%B0%B4%E5%BD%A9%E7%95%AB%E7%9A%84%E7%99%BE%E5%B9%B4%E6%B5%81%E8%AE%8A",
    "lang": "zh-TW",
    "desc": "從日治時期石川欽一郎的啟蒙，到當代簡忠威揚名國際，台灣水彩畫走過百年歷程，成為亞洲最活躍的水彩創作重鎮。",
    "city": "新竹"
  },
  {
    "title": "台灣現代詩",
    "lat": 24.081,
    "lng": 120.539,
    "category": "art",
    "region": "central",
    "link": "/art/%E5%8F%B0%E7%81%A3%E7%8F%BE%E4%BB%A3%E8%A9%A9",
    "lang": "zh-TW",
    "desc": "從三個書房走出的現代主義實驗，如何意外催生最鄉土的詩歌革命",
    "city": "彰化"
  },
  {
    "title": "台灣當代雕塑發展",
    "lat": 25.039723,
    "lng": 121.572817,
    "category": "art",
    "region": "north",
    "link": "/art/%E5%8F%B0%E7%81%A3%E7%95%B6%E4%BB%A3%E9%9B%95%E5%A1%91%E7%99%BC%E5%B1%95",
    "lang": "zh-TW",
    "desc": "從楊英風、朱銘到新世代，探索台灣雕塑藝術的演變軌跡與創作精神",
    "city": "台北"
  },
  {
    "title": "台灣策展人與藝術文化建構",
    "lat": 25.033699,
    "lng": 121.558059,
    "category": "art",
    "region": "north",
    "link": "/art/%E5%8F%B0%E7%81%A3%E7%AD%96%E5%B1%95%E4%BA%BA%E8%88%87%E8%97%9D%E8%A1%93%E6%96%87%E5%8C%96%E5%BB%BA%E6%A7%8B",
    "lang": "zh-TW",
    "desc": "從 1990 年代初的機構萌芽到今日的國際平台，台灣策展人如何在全球化浪潮中建構本土藝術論述，又如何在國際雙年展體系中找到自己的聲音？一段關於文化身份認同與專業建制的 30 年演化史。",
    "city": "台北"
  },
  {
    "title": "台灣當代藝術",
    "lat": 25.027769,
    "lng": 121.569197,
    "category": "art",
    "region": "north",
    "link": "/art/%E7%95%B6%E4%BB%A3%E8%97%9D%E8%A1%93",
    "lang": "zh-TW",
    "desc": "從北美館到威尼斯雙年展台灣館，台灣當代藝術在全球舞台的獨特位置",
    "city": "台北"
  },
  {
    "title": "金馬賓館當代美術館",
    "lat": 22.627,
    "lng": 120.301,
    "category": "art",
    "region": "south",
    "link": "/art/%E9%87%91%E9%A6%AC%E8%B3%93%E9%A4%A8%E7%95%B6%E4%BB%A3%E7%BE%8E%E8%A1%93%E9%A4%A8",
    "lang": "zh-TW",
    "desc": "一座見證離別與重逢的冷戰軍事驛站，沉睡二十年後被一對父女喚醒，成為《孤獨星球》推薦的高雄首選美術館。",
    "city": "高雄"
  },
  {
    "title": "人間雜誌",
    "lat": 24.994,
    "lng": 121.301,
    "category": "culture",
    "region": "north",
    "link": "/culture/%E4%BA%BA%E9%96%93%E9%9B%9C%E8%AA%8C",
    "lang": "zh-TW",
    "desc": "47 期，四年，一場用攝影和文字發動的安靜革命——台灣報導文學的起點",
    "city": "桃園"
  },
  {
    "title": "台灣原住民神話：從洪水到創世的口傳史詩",
    "lat": 23.47,
    "lng": 120.957,
    "category": "culture",
    "region": "central",
    "link": "/culture/%E5%8E%9F%E4%BD%8F%E6%B0%91%E7%A5%9E%E8%A9%B1",
    "lang": "zh-TW",
    "desc": "台灣原住民神話不僅是古老故事，更是族群記憶與文化傳承的活化石，承載著與自然共存的智慧與生命觀。",
    "city": "南投"
  },
  {
    "title": "台灣原住民族16族文化地圖",
    "lat": 22.033,
    "lng": 121.549,
    "category": "culture",
    "region": "east",
    "link": "/culture/%E5%8F%B0%E7%81%A3%E5%8E%9F%E4%BD%8F%E6%B0%91%E6%97%8F16%E6%97%8F%E6%96%87%E5%8C%96%E5%9C%B0%E5%9C%96",
    "lang": "zh-TW",
    "desc": "「16」不是自然生成的數字，是談判的結果。從21萬阿美族到441人的卡那卡那富族，台灣原住民族的文化厚度遠超過任何一份官方名冊。",
    "city": "台東"
  },
  {
    "title": "台灣宗教與寺廟文化",
    "lat": 25.030859,
    "lng": 121.562115,
    "category": "culture",
    "region": "north",
    "link": "/culture/%E5%8F%B0%E7%81%A3%E5%AE%97%E6%95%99%E8%88%87%E5%AF%BA%E5%BB%9F%E6%96%87%E5%8C%96",
    "lang": "zh-TW",
    "desc": "一萬五千座廟宇比便利商店還多的島嶼，佛道民間三教共用一座屋頂，媽祖遶境百萬人徒步九天——台灣的信仰不在經文裡，在轉角的香火中。",
    "city": "台北"
  },
  {
    "title": "台灣感性：韓國人眼中的台式美學",
    "lat": 25.057,
    "lng": 121.51,
    "category": "culture",
    "region": "north",
    "link": "/culture/%E5%8F%B0%E7%81%A3%E6%84%9F%E6%80%A7",
    "lang": "zh-TW",
    "desc": "兩個高雄人花十年拍下兩千種鐵窗花，韓國人花五年把它拍成一個文化現象——「대만감성」如何讓台灣的日常街景成為亞洲最迷人的美學符號",
    "city": "台北"
  },
  {
    "title": "台灣文化創意園區發展",
    "lat": 22.621642,
    "lng": 120.284574,
    "category": "culture",
    "region": "south",
    "link": "/culture/%E5%8F%B0%E7%81%A3%E6%96%87%E5%8C%96%E5%89%B5%E6%84%8F%E5%9C%92%E5%8D%80%E7%99%BC%E5%B1%95",
    "lang": "zh-TW",
    "desc": "從舊建築活化到創意聚落，台灣文化創意園區的發展歷程與創新模式",
    "city": "高雄"
  },
  {
    "title": "台灣殯葬文化與生死觀",
    "lat": 25.03597,
    "lng": 121.567604,
    "category": "culture",
    "region": "north",
    "link": "/culture/%E5%8F%B0%E7%81%A3%E6%AE%AF%E8%91%AC%E6%96%87%E5%8C%96%E8%88%87%E7%94%9F%E6%AD%BB%E8%A7%80",
    "lang": "zh-TW",
    "desc": "從孝女白琴的哭聲到詠愛園的樹葬——台灣人花了五十年從土葬走向火葬，又花十年從靈骨塔走向一棵樹下。",
    "city": "台北"
  },
  {
    "title": "台灣獸迷文化",
    "lat": 22.625782,
    "lng": 120.293427,
    "category": "culture",
    "region": "south",
    "link": "/culture/%E5%8F%B0%E7%81%A3%E7%8D%B8%E8%BF%B7%E6%96%87%E5%8C%96",
    "lang": "zh-TW",
    "desc": "2015 年，台灣第一場獸迷大會只來了約 50 人，獸裝師不到 10 個。十年後，獸無限單場 3,251 人、689 套獸裝同台、慈善募款近百萬元。台灣獸迷從撥接時代的 BBS 討論，長成了亞洲最具組織力的擬人化動物愛好者社群。",
    "city": "高雄"
  },
  {
    "title": "台灣老街文化與商業街區",
    "lat": 25.109,
    "lng": 121.845,
    "category": "culture",
    "region": "north",
    "link": "/culture/%E5%8F%B0%E7%81%A3%E8%80%81%E8%A1%97%E6%96%87%E5%8C%96%E8%88%87%E5%95%86%E6%A5%AD%E8%A1%97%E5%8D%80",
    "lang": "zh-TW",
    "desc": "從清代港口繁華到日治巴洛克洋樓，台灣老街是一部用磚瓦寫成的庶民史",
    "city": "新北"
  },
  {
    "title": "黃金時代的餘韻：台灣茶文化的流變與工藝",
    "lat": 23.51,
    "lng": 120.7,
    "category": "culture",
    "region": "south",
    "link": "/culture/%E5%8F%B0%E7%81%A3%E8%8C%B6%E6%96%87%E5%8C%96",
    "lang": "zh-TW",
    "desc": "1930年代列強簽了限產協定把台灣排除在外，結果台灣紅茶趁勢暴衝——從329萬公斤到580萬。90年後，同一座島嶼每30分鐘開一家手搖飲店。",
    "city": "嘉義"
  },
  {
    "title": "台灣茶道與生活美學",
    "lat": 23.51171,
    "lng": 120.705075,
    "category": "culture",
    "region": "south",
    "link": "/culture/%E5%8F%B0%E7%81%A3%E8%8C%B6%E9%81%93%E8%88%87%E7%94%9F%E6%B4%BB%E7%BE%8E%E5%AD%B8",
    "lang": "zh-TW",
    "desc": "一隻蟲咬出的蜜香、一棟日式老屋裡的民主運動、一杯珍奶征服的全球市場——台灣茶文化如何從殖民遺產長成獨特的生活美學",
    "city": "嘉義"
  },
  {
    "title": "台灣街頭藝術與塗鴉文化",
    "lat": 25.039336,
    "lng": 121.571486,
    "category": "culture",
    "region": "north",
    "link": "/culture/%E5%8F%B0%E7%81%A3%E8%A1%97%E9%A0%AD%E8%97%9D%E8%A1%93%E8%88%87%E5%A1%97%E9%B4%89%E6%96%87%E5%8C%96",
    "lang": "zh-TW",
    "desc": "從地下塗鴉到合法彩繪，城市牆面如何成為台灣藝術家的創作舞台",
    "city": "台北"
  },
  {
    "title": "台灣製香文化與香腳原鄉",
    "lat": 24.055,
    "lng": 120.437,
    "category": "culture",
    "region": "central",
    "link": "/culture/%E5%8F%B0%E7%81%A3%E8%A3%BD%E9%A6%99%E6%96%87%E5%8C%96%E8%88%87%E9%A6%99%E8%85%B3%E5%8E%9F%E9%84%89",
    "lang": "zh-TW",
    "desc": "從嘉義雲霄社區的百年香腳技藝，到台灣遍布全島的製香產業——一門關於虔誠、手藝與堅持的古老行業",
    "city": "彰化"
  },
  {
    "title": "台灣諧音禁忌文化：為什麼「四」讓整個社會跳過樓層？",
    "lat": 24.990619,
    "lng": 121.303237,
    "category": "culture",
    "region": "north",
    "link": "/culture/%E5%8F%B0%E7%81%A3%E8%AB%A7%E9%9F%B3%E7%A6%81%E5%BF%8C%E6%96%87%E5%8C%96",
    "lang": "zh-TW",
    "desc": "從醫院沒有四樓到車牌8888天價標售，台灣人對諧音的敏感程度堪稱世界之最",
    "city": "桃園"
  },
  {
    "title": "客家文化與語言",
    "lat": 22.682,
    "lng": 120.484,
    "category": "culture",
    "region": "south",
    "link": "/culture/%E5%AE%A2%E5%AE%B6%E6%96%87%E5%8C%96%E8%88%87%E8%AA%9E%E8%A8%80",
    "lang": "zh-TW",
    "desc": "一群人在 1988 年把孫中山的照片戴上口罩遊行，只為了爭回說母語的權利——他們贏了，但語言還在消失",
    "city": "屏東"
  },
  {
    "title": "擲筊：在 50% 的機率背後，聽見神明的聲音",
    "lat": 23.48,
    "lng": 120.449,
    "category": "culture",
    "region": "south",
    "link": "/culture/%E6%93%B2%E7%AD%8A",
    "lang": "zh-TW",
    "desc": "從嘉義竹頭筊職人黃奕薰的堅持，到屏東慈天宮 20 個聖筊的 300 萬傳奇，探討台灣人與神明溝通的機率與溫度。",
    "city": "嘉義"
  },
  {
    "title": "族群（閩南客家原住民外省新住民）",
    "lat": 25.033625,
    "lng": 121.564448,
    "category": "culture",
    "region": "north",
    "link": "/culture/%E6%97%8F%E7%BE%A4%EF%BC%88%E9%96%A9%E5%8D%97%E5%AE%A2%E5%AE%B6%E5%8E%9F%E4%BD%8F%E6%B0%91%E5%A4%96%E7%9C%81%E6%96%B0%E4%BD%8F%E6%B0%91%EF%BC%89",
    "lang": "zh-TW",
    "desc": "一場道歉儀式、一萬人的遊行、57萬個新來的家庭——台灣族群的故事，比「多元共融」四個字複雜得多。",
    "city": "台北"
  },
  {
    "title": "澎湖民俗文化",
    "lat": 23.571,
    "lng": 119.579,
    "category": "culture",
    "region": "islands",
    "link": "/culture/%E6%BE%8E%E6%B9%96%E6%B0%91%E4%BF%97%E6%96%87%E5%8C%96",
    "lang": "zh-TW",
    "desc": "每年正月十五，澎湖兩百多座廟宇同時擲筊、四萬七千斤米龜堆上供桌——這座被東北季風吹了四百年的群島，用乞龜換回出海的人，用石滬困住退潮的魚，用褒歌對唱一整個冬天的寂寞。",
    "city": "澎湖"
  },
  {
    "title": "藍染",
    "lat": 24.561,
    "lng": 120.821,
    "category": "culture",
    "region": "central",
    "link": "/culture/%E8%97%8D%E6%9F%93",
    "lang": "zh-TW",
    "desc": "它曾經是台灣排名第三的出口商品，讓北台灣的山城一夜致富；後來它消失了半個世紀，直到一群人決定把那抹「台灣藍」從土裡種回來。",
    "city": "苗栗"
  },
  {
    "title": "關聖帝君：一個敗軍之將如何成為台灣的萬能之神",
    "lat": 25.039795,
    "lng": 121.561934,
    "category": "culture",
    "region": "north",
    "link": "/culture/%E9%97%9C%E8%81%96%E5%B8%9D%E5%90%9B%E4%BF%A1%E4%BB%B0",
    "lang": "zh-TW",
    "desc": "三國武將關羽兵敗被斬首，卻在台灣演化出全球獨有的「恩主公」信仰體系——而全台最繁忙的關帝廟，連一炷香都不讓你燒。",
    "city": "台北"
  },
  {
    "title": "台灣中小企業與隱形冠軍：171萬家平凡無奇企業撐起的經濟奇蹟",
    "lat": 24.084324,
    "lng": 120.545604,
    "category": "economy",
    "region": "central",
    "link": "/economy/%E5%8F%B0%E7%81%A3%E4%B8%AD%E5%B0%8F%E4%BC%81%E6%A5%AD%E8%88%87%E9%9A%B1%E5%BD%A2%E5%86%A0%E8%BB%8D",
    "lang": "zh-TW",
    "desc": "真正支撐台灣經濟的不是護國神山，而是171萬家看似平凡、卻創造79%就業機會的隱形冠軍。從1960年代黑手師傅起家，到今日掌控全球利基市場的精密製造王國。",
    "city": "彰化"
  },
  {
    "title": "中鋼：鐵頭部長與十大建設的鋼鐵傳奇",
    "lat": 22.632968,
    "lng": 120.293762,
    "category": "economy",
    "region": "south",
    "link": "/economy/%E5%8F%B0%E7%81%A3%E4%BC%81%E6%A5%AD%EF%BC%9A%E4%B8%AD%E9%8B%BC",
    "lang": "zh-TW",
    "desc": "從趙耀東歐美談判智取技術，到高雄小港升起的第一縷白煙，中鋼用50年打造台灣重工業脊樑，是十大建設最成功的明珠",
    "city": "高雄"
  },
  {
    "title": "台泥：台灣第一上市公司的綠色轉型傳奇",
    "lat": 23.001357,
    "lng": 120.168777,
    "category": "economy",
    "region": "south",
    "link": "/economy/%E5%8F%B0%E7%81%A3%E4%BC%81%E6%A5%AD%EF%BC%9A%E5%8F%B0%E6%B3%A5",
    "lang": "zh-TW",
    "desc": "1962年台灣證交所為它而生，股票代號1101象徵台股起源。從辜家三代經營76年，台泥用一座座水泥窯見證台灣建設奇蹟，如今轉型綠色企業迎戰碳中和時代",
    "city": "台南"
  },
  {
    "title": "台灣企業：台積電",
    "lat": 24.807459,
    "lng": 120.965936,
    "category": "economy",
    "region": "north",
    "link": "/economy/%E5%8F%B0%E7%81%A3%E4%BC%81%E6%A5%AD%EF%BC%9A%E5%8F%B0%E7%A9%8D%E9%9B%BB",
    "lang": "zh-TW",
    "desc": "一個 56 歲的人在 1987 年創辦了一種「全世界沒人做過」的公司，然後它變成了地球上最重要的工廠",
    "city": "新竹"
  },
  {
    "title": "奇美實業：許文龍的壓克力王國與博物館夢想",
    "lat": 22.935,
    "lng": 120.226,
    "category": "economy",
    "region": "south",
    "link": "/economy/%E5%8F%B0%E7%81%A3%E4%BC%81%E6%A5%AD%EF%BC%9A%E5%A5%87%E7%BE%8E%E5%AF%A6%E6%A5%AD",
    "lang": "zh-TW",
    "desc": "從1960年台南仁德小工廠起步，許文龍用一生打造亞洲最大ABS材料王國，更創建奇美博物館回饋社會。證明台灣企業可以兼顧商業成功與人文關懷",
    "city": "台南"
  },
  {
    "title": "宏碁集團 (Acer) - PC 產業的變革先驅",
    "lat": 24.999799,
    "lng": 121.295556,
    "category": "economy",
    "region": "north",
    "link": "/economy/%E5%8F%B0%E7%81%A3%E4%BC%81%E6%A5%AD%EF%BC%9A%E5%AE%8F%E7%A2%81",
    "lang": "zh-TW",
    "desc": "從台灣桃園起家的個人電腦先驅，創造「多品牌、多通路」商業模式，成為全球 PC 產業的變革引擎",
    "city": "桃園"
  },
  {
    "title": "台灣企業：巨大機械",
    "lat": 25.033954,
    "lng": 121.564336,
    "category": "economy",
    "region": "north",
    "link": "/economy/%E5%8F%B0%E7%81%A3%E4%BC%81%E6%A5%AD%EF%BC%9A%E5%B7%A8%E5%A4%A7%E6%A9%9F%E6%A2%B0",
    "lang": "zh-TW",
    "desc": "從被美國大廠拋棄的代工奴隸，到制定全球自行車技術標準的隱形帝國",
    "city": "台北"
  },
  {
    "title": "台灣企業：廣達電腦",
    "lat": 25.030865,
    "lng": 121.5588,
    "category": "economy",
    "region": "north",
    "link": "/economy/%E5%8F%B0%E7%81%A3%E4%BC%81%E6%A5%AD%EF%BC%9A%E5%BB%A3%E9%81%94%E9%9B%BB%E8%85%A6",
    "lang": "zh-TW",
    "desc": "從工廠火災到全球筆電王，林百里如何建造AI時代的新帝國？",
    "city": "台北"
  },
  {
    "title": "台灣企業：日月光半導體",
    "lat": 22.619653,
    "lng": 120.307464,
    "category": "economy",
    "region": "south",
    "link": "/economy/%E5%8F%B0%E7%81%A3%E4%BC%81%E6%A5%AD%EF%BC%9A%E6%97%A5%E6%9C%88%E5%85%89%E5%8D%8A%E5%B0%8E%E9%AB%94",
    "lang": "zh-TW",
    "desc": "全球第一大封測廠，建設公司老闆為何轉戰半導體？",
    "city": "高雄"
  },
  {
    "title": "台灣企業：玉山金控",
    "lat": 23.47382,
    "lng": 120.954359,
    "category": "economy",
    "region": "central",
    "link": "/economy/%E5%8F%B0%E7%81%A3%E4%BC%81%E6%A5%AD%EF%BC%9A%E7%8E%89%E5%B1%B1%E9%87%91%E6%8E%A7",
    "lang": "zh-TW",
    "desc": "從信用卡專業銀行到數位金融先鋒，43歲最年輕金控總經理的突破故事",
    "city": "南投"
  },
  {
    "title": "義美：百年固執、食安良心，與社會共好的多維實踐",
    "lat": 25.062052,
    "lng": 121.503448,
    "category": "economy",
    "region": "north",
    "link": "/economy/%E5%8F%B0%E7%81%A3%E4%BC%81%E6%A5%AD%EF%BC%9A%E7%BE%A9%E7%BE%8E%E9%A3%9F%E5%93%81",
    "lang": "zh-TW",
    "desc": "義美食品，這家從日治時期大稻埕「大安醫院」原址起家的糕餅店，如何在高騰蛟與高志明兩代人的固執經營下，成為台灣食品產業的標竿？本文深入探討其從傳統糕餅到現代通路、從食安實驗室到機器人產業的多維實踐，以及其在社會責任與品牌神話中的挑戰與轉型。",
    "city": "台北"
  },
  {
    "title": "遠東集團：從上海紡織廠到台灣最多元化商業帝國",
    "lat": 25.012,
    "lng": 121.465,
    "category": "economy",
    "region": "north",
    "link": "/economy/%E5%8F%B0%E7%81%A3%E4%BC%81%E6%A5%AD%EF%BC%9A%E9%81%A0%E6%9D%B1%E9%9B%86%E5%9C%98",
    "lang": "zh-TW",
    "desc": "87年前上海的一間小紡織廠，如何演變成跨越十大產業、資產逾3兆的台灣商業帝國？遠東集團的發展史，見證了台商從榮耀到政治風險的完整軌跡",
    "city": "新北"
  },
  {
    "title": "台灣企業：長春石化",
    "lat": 22.999,
    "lng": 120.227,
    "category": "economy",
    "region": "south",
    "link": "/economy/%E5%8F%B0%E7%81%A3%E4%BC%81%E6%A5%AD%EF%BC%9A%E9%95%B7%E6%98%A5%E7%9F%B3%E5%8C%96",
    "lang": "zh-TW",
    "desc": "1949年台南小工廠到全球化工巨頭，「不上市不借錢」的隱形冠軍故事",
    "city": "台南"
  },
  {
    "title": "台灣機械工具產業",
    "lat": 24.148,
    "lng": 120.674,
    "category": "economy",
    "region": "central",
    "link": "/economy/%E5%8F%B0%E7%81%A3%E6%A9%9F%E6%A2%B0%E5%B7%A5%E5%85%B7%E7%94%A2%E6%A5%AD",
    "lang": "zh-TW",
    "desc": "從大肚山黃金縱谷到 TMTS 2026，台灣工具機產業的韌性、崩盤、重生，以及為什麼 2024 年從全球第 5 掉到第 7 的結構性焦慮。",
    "city": "台中"
  },
  {
    "title": "夜市經濟學：一場沒有品牌的商業奇蹟",
    "lat": 24.179,
    "lng": 120.647,
    "category": "economy",
    "region": "central",
    "link": "/economy/%E5%A4%9C%E5%B8%82%E7%B6%93%E6%BF%9F%E5%AD%B8",
    "lang": "zh-TW",
    "desc": "探索台灣夜市如何在沒有品牌、裝潢和固定地點的情況下，創造年產值近4000億的經濟奇蹟",
    "city": "台中"
  },
  {
    "title": "經濟奇蹟",
    "lat": 22.631353,
    "lng": 120.306114,
    "category": "economy",
    "region": "south",
    "link": "/economy/%E7%B6%93%E6%BF%9F%E5%A5%87%E8%B9%9F",
    "lang": "zh-TW",
    "desc": "1952年，台灣人均GDP只有196美元，比海地還窮。40年後，台灣成為「亞洲四小龍」之首，人均GDP超過1萬美元。但這個「奇蹟」的代價是什麼？當我們讚美台灣錢淹腳目的年代時，很少人談起那些在加工出口區裡每天工作12小時的女工，和那些把一生積蓄押在小工廠裡的老闆們。",
    "city": "高雄"
  },
  {
    "title": "台灣咖啡產業",
    "lat": 23.508408,
    "lng": 120.706864,
    "category": "food",
    "region": "south",
    "link": "/food/%E5%8F%B0%E7%81%A3%E5%92%96%E5%95%A1%E7%94%A2%E6%A5%AD",
    "lang": "zh-TW",
    "desc": "從德記洋行1884年的100株苗木到2024年首屆CoE卓越盃，一個島嶼如何在140年間打造出年進口4.3萬公噸的咖啡王國",
    "city": "嘉義"
  },
  {
    "title": "台灣小吃",
    "lat": 25.088,
    "lng": 121.524,
    "category": "food",
    "region": "north",
    "link": "/food/%E5%8F%B0%E7%81%A3%E5%B0%8F%E5%90%83",
    "lang": "zh-TW",
    "desc": "1987年春水堂的一個失誤，讓珍珠奶茶走進60國市場。台灣小吃從清代移民的生存工具，到今天23.3萬個攤位撐起的4000億產業：它的成功方程式不是精緻化，而是那種「管它的，先試試看」的草根勇氣。",
    "city": "台北"
  },
  {
    "title": "台灣手路菜：意思、由來與辦桌文化的「拿手好菜」",
    "lat": 22.631358,
    "lng": 120.304894,
    "category": "food",
    "region": "south",
    "link": "/food/%E5%8F%B0%E7%81%A3%E6%89%8B%E8%B7%AF%E8%8F%9C",
    "lang": "zh-TW",
    "desc": "手路菜（台語 tshiú-lōo-tshài）是「拿手好菜」的意思。高雄內門的白堊土種不出作物，卻養出全台密度最高的總鋪師——黃金年代一年辦 25,000 桌，大月營收 1,200 萬。一鍋菜尾湯要花四到八小時，結得好不好，全村隔天都知道。",
    "city": "高雄"
  },
  {
    "title": "台灣新住民美食融合",
    "lat": 25.040883,
    "lng": 121.562572,
    "category": "food",
    "region": "north",
    "link": "/food/%E5%8F%B0%E7%81%A3%E6%96%B0%E4%BD%8F%E6%B0%91%E7%BE%8E%E9%A3%9F%E8%9E%8D%E5%90%88",
    "lang": "zh-TW",
    "desc": "當泰式酸辣遇上台灣甜鹹、當越南河粉邂逅台式滷味、當印尼香料擁抱本土食材，一場跨越國界的味覺革命正在台灣悄然發生。新住民帶來的不只是故鄉的料理，更是豐富台灣美食文化的全新可能。",
    "city": "台北"
  },
  {
    "title": "台灣海鮮文化",
    "lat": 25.128,
    "lng": 121.739,
    "category": "food",
    "region": "north",
    "link": "/food/%E5%8F%B0%E7%81%A3%E6%B5%B7%E9%AE%AE%E6%96%87%E5%8C%96",
    "lang": "zh-TW",
    "desc": "漁港新鮮直送、海鮮餐廳文化、蚵仔煎等海味料理，展現台灣四面環海的島嶼特色與豐富的海鮮飲食傳統",
    "city": "基隆"
  },
  {
    "title": "台灣米其林：星光下的代價與重新定義",
    "lat": 25.028193,
    "lng": 121.558675,
    "category": "food",
    "region": "north",
    "link": "/food/%E5%8F%B0%E7%81%A3%E7%B1%B3%E5%85%B6%E6%9E%97%E8%88%87%E7%B2%BE%E7%B7%BB%E9%A4%90%E9%A3%B2",
    "lang": "zh-TW",
    "desc": "2018 年米其林登陸台灣，表面上是國際認證的榮耀，實際上重新劃分了餐飲業的生存規則——「幾乎夠格」的餐廳，反而成了最大受害者。",
    "city": "台北"
  },
  {
    "title": "台灣米食文化",
    "lat": 24.808912,
    "lng": 120.970445,
    "category": "food",
    "region": "north",
    "link": "/food/%E5%8F%B0%E7%81%A3%E7%B1%B3%E9%A3%9F%E6%96%87%E5%8C%96",
    "lang": "zh-TW",
    "desc": "從年吃 85 公斤到 42 公斤：一個稻米島國的飲食革命與文化堅持",
    "city": "新竹"
  },
  {
    "title": "台灣辦桌文化",
    "lat": 22.628568,
    "lng": 120.306399,
    "category": "food",
    "region": "south",
    "link": "/food/%E5%8F%B0%E7%81%A3%E8%BE%A6%E6%A1%8C%E6%96%87%E5%8C%96",
    "lang": "zh-TW",
    "desc": "一個清朝就存在的產業，在台灣最貧瘠的土地上養出全球密度最高的總鋪師。疫情讓訂單蒸發九成，但真正讓行家憂心的，從來不是失業——是失傳。",
    "city": "高雄"
  },
  {
    "title": "台灣鹽酥雞",
    "lat": 25.043341,
    "lng": 121.503683,
    "category": "food",
    "region": "north",
    "link": "/food/%E5%8F%B0%E7%81%A3%E9%B9%BD%E9%85%A5%E9%9B%9E",
    "lang": "zh-TW",
    "desc": "1975 年，一個餐廳經營失敗的台南人陳廷智在西門町擺起推車，用祖傳醃料炸雞塊。五十年後，鹽酥雞成了台灣少數不需要夜市、不需要店面、只靠一台推車和一鍋油就能存活的小吃——CNN 兩度將它列入台灣必吃清單，但它最正宗的吃法，永遠是半夜在路邊等那個紙袋。",
    "city": "台北"
  },
  {
    "title": "夜市文化",
    "lat": 25.085731,
    "lng": 121.528366,
    "category": "food",
    "region": "north",
    "link": "/food/%E5%A4%9C%E5%B8%82%E6%96%87%E5%8C%96",
    "lang": "zh-TW",
    "desc": "164個列管夜市、台南平均3.8萬人擁有一個夜市，從廟埕到國際觀光景點",
    "city": "台北"
  },
  {
    "title": "客家飲食文化",
    "lat": 24.810862,
    "lng": 120.968637,
    "category": "food",
    "region": "north",
    "link": "/food/%E5%AE%A2%E5%AE%B6%E9%A3%B2%E9%A3%9F%E6%96%87%E5%8C%96",
    "lang": "zh-TW",
    "desc": "客家人豐富多元的飲食文化，從擂茶的醇厚香味到野薑花粽的山林風情，展現客家族群勤儉持家與就地取材的生活智慧",
    "city": "新竹"
  },
  {
    "title": "牛肉麵",
    "lat": 25.035756,
    "lng": 121.566938,
    "category": "food",
    "region": "north",
    "link": "/food/%E7%89%9B%E8%82%89%E9%BA%B5",
    "lang": "zh-TW",
    "desc": "從外省移民鄉愁到台灣國民美食，牛肉麵的文化融合與全球飄香",
    "city": "台北"
  },
  {
    "title": "珍珠奶茶",
    "lat": 24.153519,
    "lng": 120.667283,
    "category": "food",
    "region": "central",
    "link": "/food/%E7%8F%8D%E7%8F%A0%E5%A5%B6%E8%8C%B6",
    "lang": "zh-TW",
    "desc": "1987 年台中的一次員工會議，一個不經意的動作，讓一杯飲料征服了全球。珍珠奶茶的起源爭議、文化政治、與一杯 500 大卡的健康辯論。",
    "city": "台中"
  },
  {
    "title": "粽子",
    "lat": 22.995508,
    "lng": 120.229254,
    "category": "food",
    "region": "south",
    "link": "/food/%E7%B2%BD%E5%AD%90",
    "lang": "zh-TW",
    "desc": "台灣粽子不是一種食物，是四種不同的島嶼記憶疊在一起：閩南、客家、外省、原住民，每一口咬下去的，都是來時路。",
    "city": "台南"
  },
  {
    "title": "在搖晃的島嶼上，他們蓋了一座能飛的塔",
    "lat": 25.026515,
    "lng": 121.572617,
    "category": "geography",
    "region": "north",
    "link": "/geography/%E5%8F%B0%E5%8C%97101",
    "lang": "zh-TW",
    "desc": "距離活動斷層僅 200 公尺，台灣人偏要在最不穩定的土地上建出世界最高樓——然後有個瘋子花 91 分鐘徒手爬了上去。",
    "city": "台北"
  },
  {
    "title": "台灣五大地形與地理結構：從山脈到平原的島嶼風貌",
    "lat": 23.468948,
    "lng": 120.951067,
    "category": "geography",
    "region": "central",
    "link": "/geography/%E5%8F%B0%E7%81%A3%E4%BA%94%E5%A4%A7%E5%9C%B0%E5%BD%A2%E8%88%87%E5%9C%B0%E7%90%86%E7%B5%90%E6%A7%8B",
    "lang": "zh-TW",
    "desc": "探索台灣獨特的地理結構，從中央山脈到西部平原，認識這座島嶼的地形多樣性",
    "city": "南投"
  },
  {
    "title": "台灣交通運輸網路",
    "lat": 25.03287,
    "lng": 121.560439,
    "category": "geography",
    "region": "north",
    "link": "/geography/%E5%8F%B0%E7%81%A3%E4%BA%A4%E9%80%9A%E9%81%8B%E8%BC%B8%E7%B6%B2%E7%B5%A1",
    "lang": "zh-TW",
    "desc": "高鐵、捷運、公路、航空，編織移動台灣的立體交通網路",
    "city": "台北"
  },
  {
    "title": "台灣國家風景區系統",
    "lat": 23.863,
    "lng": 120.917,
    "category": "geography",
    "region": "central",
    "link": "/geography/%E5%8F%B0%E7%81%A3%E5%9C%8B%E5%AE%B6%E9%A2%A8%E6%99%AF%E5%8D%80%E7%B3%BB%E7%B5%B1",
    "lang": "zh-TW",
    "desc": "一個「國家級」標籤下的觀光優先實驗：13處風景區如何在保育與開發間走鋼索",
    "city": "南投"
  },
  {
    "title": "台灣地圖怎麼讀：從番薯到衛星的四百年",
    "lat": 24.449,
    "lng": 118.377,
    "category": "geography",
    "region": "islands",
    "link": "/geography/%E5%8F%B0%E7%81%A3%E5%9C%B0%E5%9C%96%E6%80%8E%E9%BA%BC%E8%AE%80",
    "lang": "zh-TW",
    "desc": "1554 年，一個葡萄牙製圖師在八張羊皮上畫出了一座叫「I. Fremosa」的模糊島嶼。他從沒踏上過這座島。四百七十年後，Google Maps 顯示的台灣長什麼樣，取決於你人在哪個國家——這不是技術問題，是政治。",
    "city": "金門"
  },
  {
    "title": "台灣島嶼地理特色與形成",
    "lat": 23.515168,
    "lng": 120.707962,
    "category": "geography",
    "region": "south",
    "link": "/geography/%E5%8F%B0%E7%81%A3%E5%B3%B6%E5%B6%BC%E5%9C%B0%E7%90%86%E7%89%B9%E8%89%B2%E8%88%87%E5%BD%A2%E6%88%90",
    "lang": "zh-TW",
    "desc": "探索台灣獨特的島嶼地理特色，從板塊運動到地形結構，了解福爾摩沙島的自然奧秘",
    "city": "嘉義"
  },
  {
    "title": "台灣板塊運動與地震活動",
    "lat": 25.039773,
    "lng": 121.568395,
    "category": "geography",
    "region": "north",
    "link": "/geography/%E5%8F%B0%E7%81%A3%E6%9D%BF%E5%A1%8A%E9%81%8B%E5%8B%95%E8%88%87%E5%9C%B0%E9%9C%87%E6%B4%BB%E5%8B%95",
    "lang": "zh-TW",
    "desc": "探討台灣位於歐亞板塊與菲律賓海板塊交界的地質特性，以及造成頻繁地震活動的原因",
    "city": "台北"
  },
  {
    "title": "台灣水庫與水資源管理",
    "lat": 25.025224,
    "lng": 121.568875,
    "category": "geography",
    "region": "north",
    "link": "/geography/%E5%8F%B0%E7%81%A3%E6%B0%B4%E5%BA%AB%E8%88%87%E6%B0%B4%E8%B3%87%E6%BA%90%E7%AE%A1%E7%90%86",
    "lang": "zh-TW",
    "desc": "從缺水危機到水庫淤積，台灣水資源的挑戰與南北分配不均的困境",
    "city": "台北"
  },
  {
    "title": "台灣河川系統與水文特色：短急流與季節變遷的水文地理",
    "lat": 25.17,
    "lng": 121.44,
    "category": "geography",
    "region": "north",
    "link": "/geography/%E5%8F%B0%E7%81%A3%E6%B2%B3%E5%B7%9D%E7%B3%BB%E7%B5%B1%E8%88%87%E6%B0%B4%E6%96%87%E7%89%B9%E8%89%B2",
    "lang": "zh-TW",
    "desc": "探索台灣獨特的河川系統，從濁水溪到高屏溪，了解島嶼地形如何塑造台灣的水文特色",
    "city": "新北"
  },
  {
    "title": "台灣海岸地形與海洋地景",
    "lat": 23.464937,
    "lng": 120.95688,
    "category": "geography",
    "region": "central",
    "link": "/geography/%E5%8F%B0%E7%81%A3%E6%B5%B7%E5%B2%B8%E5%9C%B0%E5%BD%A2%E8%88%87%E6%B5%B7%E6%B4%8B%E5%9C%B0%E6%99%AF",
    "lang": "zh-TW",
    "desc": "在地球上，很少有地方能讓你從近4,000公尺的山頂出發，不到150公里就墜入7,500公尺深的海溝。台灣可以。這座島嶼的海岸線，是一場仍在進行的車禍現場——美到令人窒息。",
    "city": "南投"
  },
  {
    "title": "台灣溫泉地景",
    "lat": 22.695,
    "lng": 121.032,
    "category": "geography",
    "region": "east",
    "link": "/geography/%E5%8F%B0%E7%81%A3%E6%BA%AB%E6%B3%89%E5%9C%B0%E6%99%AF",
    "lang": "zh-TW",
    "desc": "從『女巫湯』到全球前15溫泉王國，板塊碰撞如何煮出這座島的療癒密碼",
    "city": "台東"
  },
  {
    "title": "台灣生態多樣性熱點",
    "lat": 23.469341,
    "lng": 120.95303,
    "category": "geography",
    "region": "central",
    "link": "/geography/%E5%8F%B0%E7%81%A3%E7%94%9F%E6%85%8B%E5%A4%9A%E6%A8%A3%E6%80%A7%E7%86%B1%E9%BB%9E",
    "lang": "zh-TW",
    "desc": "3.6 萬平方公里島嶼擠下 5.9 萬種生物，密度是全球平均值的 100 倍",
    "city": "南投"
  },
  {
    "title": "台灣行政區劃：從「地方會議」到「五都」的權力拼圖",
    "lat": 23.48762,
    "lng": 120.443766,
    "category": "geography",
    "region": "south",
    "link": "/geography/%E5%8F%B0%E7%81%A3%E8%A1%8C%E6%94%BF%E5%8D%80%E5%8A%83",
    "lang": "zh-TW",
    "desc": "台灣行政區劃不只是地圖上的線條，更是一場跨越四百年的權力實驗。從荷西時期的部落議會，到日治時期的「五州三廳」雅化運動，再到戰後差點出現的「爽文市」，每一道邊界背後都藏著統治意志與地方認同的拉扯。",
    "city": "嘉義"
  },
  {
    "title": "台灣農業地景與產業分布",
    "lat": 24.082249,
    "lng": 120.532134,
    "category": "geography",
    "region": "central",
    "link": "/geography/%E5%8F%B0%E7%81%A3%E8%BE%B2%E6%A5%AD%E5%9C%B0%E6%99%AF%E8%88%87%E7%94%A2%E6%A5%AD%E5%88%86%E5%B8%83",
    "lang": "zh-TW",
    "desc": "從北到南的農業地景變化，彰顯台灣從「台灣穀倉」到「精緻農業」的轉型之路",
    "city": "彰化"
  },
  {
    "title": "台灣都市發展與城鄉差距",
    "lat": 25.034999,
    "lng": 121.561644,
    "category": "geography",
    "region": "north",
    "link": "/geography/%E5%8F%B0%E7%81%A3%E9%83%BD%E5%B8%82%E7%99%BC%E5%B1%95%E8%88%87%E5%9F%8E%E9%84%89%E5%B7%AE%E8%B7%9D",
    "lang": "zh-TW",
    "desc": "70年從農業島變都市島，六都集中7成人口的光與影：繁榮台中vs凋零雲林的殘酷對比",
    "city": "台北"
  },
  {
    "title": "地形與地質",
    "lat": 23.469702,
    "lng": 120.951405,
    "category": "geography",
    "region": "central",
    "link": "/geography/%E5%9C%B0%E5%BD%A2%E8%88%87%E5%9C%B0%E8%B3%AA",
    "lang": "zh-TW",
    "desc": "600萬年的島嶼，藏著2億年的古老記憶 — 全球最年輕造山帶與最劇烈板塊碰撞的奇蹟",
    "city": "南投"
  },
  {
    "title": "城市特色與區域文化",
    "lat": 25.036394,
    "lng": 121.570388,
    "category": "geography",
    "region": "north",
    "link": "/geography/%E5%9F%8E%E5%B8%82%E7%89%B9%E8%89%B2%E8%88%87%E5%8D%80%E5%9F%9F%E6%96%87%E5%8C%96",
    "lang": "zh-TW",
    "desc": "從台北的國際都會到台南的古都風情，台灣各城市如何形塑獨特的地方認同",
    "city": "台北"
  },
  {
    "title": "台灣氣候",
    "lat": 23.513598,
    "lng": 120.693839,
    "category": "geography",
    "region": "south",
    "link": "/geography/%E6%B0%A3%E5%80%99",
    "lang": "zh-TW",
    "desc": "年降雨量是全球平均2.5倍，卻名列全球前20缺水國——台灣的氣候從來不是你想的那樣",
    "city": "嘉義"
  },
  {
    "title": "離島與海洋文化：從石滬密度世界第一到飛魚季生態法律",
    "lat": 23.5689,
    "lng": 119.581504,
    "category": "geography",
    "region": "islands",
    "link": "/geography/%E9%9B%A2%E5%B3%B6%E8%88%87%E6%B5%B7%E6%B4%8B%E6%96%87%E5%8C%96",
    "lang": "zh-TW",
    "desc": "全世界石滬不到600座，澎湖就有574座。一個專門抓飛魚的島嶼民族，把禁忌變成了最精密的海洋資源管理系統",
    "city": "澎湖"
  },
  {
    "title": "中正紀念堂",
    "lat": 25.032527,
    "lng": 121.518625,
    "category": "history",
    "region": "north",
    "link": "/history/%E4%B8%AD%E6%AD%A3%E7%B4%80%E5%BF%B5%E5%A0%82",
    "lang": "zh-TW",
    "desc": "它是台北市中心最巨大的政治圖騰，也是最民主的練舞場。從威權的聖殿到轉型正義的暴風眼，這座建築紀錄了台灣靈魂最劇烈的震盪。",
    "city": "台北"
  },
  {
    "title": "乙未之役：臺灣民主國的 148 天",
    "lat": 25.027519,
    "lng": 121.570803,
    "category": "history",
    "region": "north",
    "link": "/history/%E4%B9%99%E6%9C%AA%E4%B9%8B%E5%BD%B9",
    "lang": "zh-TW",
    "desc": "1895年，清廷把台灣割給日本。島上的官員宣布建立亞洲第一個共和國，但總統十天就跑了，詩人四天就走了。真正留下來打仗的，是一個19歲的客家少年和他散盡家產召來的民兵。148天後，民主國消失了，日本統治開始了。",
    "city": "台北"
  },
  {
    "title": "二二八事件",
    "lat": 22.996139,
    "lng": 120.232614,
    "category": "history",
    "region": "south",
    "link": "/history/%E4%BA%8C%E4%BA%8C%E5%85%AB%E4%BA%8B%E4%BB%B6",
    "lang": "zh-TW",
    "desc": "一個寡婦的私菸攤，如何點燃一座島嶼三十八年的沉默——1947年改變台灣命運的十天，以及七十八年後仍在癒合的傷",
    "city": "台南"
  },
  {
    "title": "台海危機與兩岸關係發展",
    "lat": 24.443904,
    "lng": 118.376002,
    "category": "history",
    "region": "islands",
    "link": "/history/%E5%8F%B0%E6%B5%B7%E5%8D%B1%E6%A9%9F%E8%88%87%E5%85%A9%E5%B2%B8%E9%97%9C%E4%BF%82%E7%99%BC%E5%B1%95",
    "lang": "zh-TW",
    "desc": "從金門阿嬤的砲彈記憶到台北年輕人的佛系日常，七十年台海危機如何塑造了台灣人的集體心理",
    "city": "金門"
  },
  {
    "title": "台灣原住民族歷史與正名運動",
    "lat": 23.514293,
    "lng": 120.694257,
    "category": "history",
    "region": "south",
    "link": "/history/%E5%8F%B0%E7%81%A3%E5%8E%9F%E4%BD%8F%E6%B0%91%E6%97%8F%E6%AD%B7%E5%8F%B2%E8%88%87%E6%AD%A3%E5%90%8D%E9%81%8B%E5%8B%95",
    "lang": "zh-TW",
    "desc": "1987年，一個19歲的鄒族青年在台北刑場被槍決。他的死，點燃了正名運動最初的火。",
    "city": "嘉義"
  },
  {
    "title": "台灣森林開發史：從資源榨取到國土保安的世紀轉向",
    "lat": 23.51686,
    "lng": 120.70738,
    "category": "history",
    "region": "south",
    "link": "/history/%E5%8F%B0%E7%81%A3%E6%A3%AE%E6%9E%97%E9%96%8B%E7%99%BC%E5%8F%B2",
    "lang": "zh-TW",
    "desc": "從清領時期的樟腦煙雲，到日治時期的鋼軌鳴響，再到戰後震撼山壑的大伐木時代。本文梳理台灣森林開發政策背後的全球地緣政治邏輯，並以資料釐清百年林業的真實真相。",
    "city": "嘉義"
  },
  {
    "title": "台灣民主轉型——威權自掘的墳墓",
    "lat": 22.620808,
    "lng": 120.29386,
    "category": "history",
    "region": "south",
    "link": "/history/%E5%8F%B0%E7%81%A3%E6%B0%91%E4%B8%BB%E8%BD%89%E5%9E%8B",
    "lang": "zh-TW",
    "desc": "每一次鎮壓都製造更多反抗者。從二二八到太陽花，一座島嶼如何讓獨裁體制親手培養出埋葬自己的力量。",
    "city": "高雄"
  },
  {
    "title": "台灣海洋貿易史",
    "lat": 22.991965,
    "lng": 120.160167,
    "category": "history",
    "region": "south",
    "link": "/history/%E5%8F%B0%E7%81%A3%E6%B5%B7%E6%B4%8B%E8%B2%BF%E6%98%93%E5%8F%B2",
    "lang": "zh-TW",
    "desc": "大航海時代的台灣，從國際貿易中心到海盜王國的興衰傳奇",
    "city": "台南"
  },
  {
    "title": "台灣白色恐怖",
    "lat": 22.661,
    "lng": 121.497,
    "category": "history",
    "region": "east",
    "link": "/history/%E5%8F%B0%E7%81%A3%E7%99%BD%E8%89%B2%E6%81%90%E6%80%96",
    "lang": "zh-TW",
    "desc": "38 年戒嚴不是靠幾千個特務維持的，是靠全台灣兩百萬個家庭必須互相擔保才能上班、入學、結婚的「連坐保證」制度維持的。陳智雄、施水環、高一生、柏楊——四個名字，四種被抓的理由，一個共同的機器。",
    "city": "台東"
  },
  {
    "title": "台灣眷村歷史",
    "lat": 25.025156,
    "lng": 121.557398,
    "category": "history",
    "region": "north",
    "link": "/history/%E5%8F%B0%E7%81%A3%E7%9C%B7%E6%9D%91%E6%AD%B7%E5%8F%B2",
    "lang": "zh-TW",
    "desc": "從緬甸孤軍到竹籬笆王國，120萬大遷徙如何重新定義「家」",
    "city": "台北"
  },
  {
    "title": "台灣轉型正義",
    "lat": 22.656745,
    "lng": 121.500364,
    "category": "history",
    "region": "east",
    "link": "/history/%E5%8F%B0%E7%81%A3%E8%BD%89%E5%9E%8B%E6%AD%A3%E7%BE%A9",
    "lang": "zh-TW",
    "desc": "台灣撤銷了近六千份威權時期的有罪判決，卻幾乎沒有一個加害者被追究責任——這個落差，比白色恐怖本身更難解釋。",
    "city": "台東"
  },
  {
    "title": "台灣選舉與政黨政治",
    "lat": 25.036238,
    "lng": 121.566293,
    "category": "history",
    "region": "north",
    "link": "/history/%E5%8F%B0%E7%81%A3%E9%81%B8%E8%88%89%E8%88%87%E6%94%BF%E9%BB%A8%E6%94%BF%E6%B2%BB",
    "lang": "zh-TW",
    "desc": "從中壢事件的火光到817萬張選票，台灣如何用半個世紀把投票從戒嚴工具變成全民信仰",
    "city": "台北"
  },
  {
    "title": "台灣鐵道史",
    "lat": 24.155212,
    "lng": 120.678584,
    "category": "history",
    "region": "central",
    "link": "/history/%E5%8F%B0%E7%81%A3%E9%90%B5%E9%81%93%E5%8F%B2",
    "lang": "zh-TW",
    "desc": "一條被日本人罵是「肺病鐵道」的爛路，如何在一百多年間變成每天載運二十萬人的高速動脈",
    "city": "台中"
  },
  {
    "title": "日治時期",
    "lat": 22.623414,
    "lng": 120.306619,
    "category": "history",
    "region": "south",
    "link": "/history/%E6%97%A5%E6%B2%BB%E6%99%82%E6%9C%9F",
    "lang": "zh-TW",
    "desc": "1895-1945年日本統治台灣50年，帶來全面現代化建設與制度化管理，同時實施同化政策，深刻影響台灣社會發展",
    "city": "高雄"
  },
  {
    "title": "民主化",
    "lat": 22.625583,
    "lng": 120.307076,
    "category": "history",
    "region": "south",
    "link": "/history/%E6%B0%91%E4%B8%BB%E5%8C%96",
    "lang": "zh-TW",
    "desc": "1980年3月18日，高雄軍事法庭上，施明德放棄了六萬字答辯書，改口要求法官判他死刑。同一場審判中，替被告辯護的年輕律師陳水扁、謝長廷、蘇貞昌，二十年後全部當上了總統或行政院長。一場本該殺雞儆猴的審判，意外製造了台灣下一個世代的政治領袖。",
    "city": "高雄"
  },
  {
    "title": "淡江中學：一座校園，如何濃縮台灣近代教育史",
    "lat": 25.164051,
    "lng": 121.43864,
    "category": "history",
    "region": "north",
    "link": "/history/%E6%B7%A1%E6%B1%9F%E4%B8%AD%E5%AD%B8",
    "lang": "zh-TW",
    "desc": "淡江中學最值得寫的，不是它夠老，而是它把宣教、女子教育與殖民體制的拉扯，都留在同一座校園裡。",
    "city": "新北"
  },
  {
    "title": "清治時期",
    "lat": 25.170452,
    "lng": 121.447832,
    "category": "history",
    "region": "north",
    "link": "/history/%E6%B8%85%E6%B2%BB%E6%99%82%E6%9C%9F",
    "lang": "zh-TW",
    "desc": "1683-1895年清朝統治台灣約212年，從消極治理到積極建設，奠定現代台灣行政區劃與漢人社會基礎",
    "city": "新北"
  },
  {
    "title": "清法戰爭：基隆與淡水的八個月",
    "lat": 25.167307,
    "lng": 121.443918,
    "category": "history",
    "region": "north",
    "link": "/history/%E6%B8%85%E6%B3%95%E6%88%B0%E7%88%AD",
    "lang": "zh-TW",
    "desc": "1884年秋天，法國艦隊砲轟基隆港，兩千名海軍陸戰隊登陸，佔領了港口。但他們花了七個月，始終走不出基隆的山嶺。同一週，600名法軍水兵在淡水登陸，兩小時內被趕回海上。戰爭結束時，法國拿到了越南，放棄了台灣。清廷差點輸掉，卻因此讓台灣從附屬變成一個省。",
    "city": "新北"
  },
  {
    "title": "擎天崗的19頭牛：從源興牛到台南牛肉湯，一座島嶼的肉牛突圍",
    "lat": 23.002471,
    "lng": 120.226676,
    "category": "history",
    "region": "south",
    "link": "/history/%E6%BA%90%E8%88%88%E7%89%9B%E8%88%87%E7%89%9B%E8%82%89%E6%B9%AF%E7%9A%84%E6%AD%B7%E5%8F%B2",
    "lang": "zh-TW",
    "desc": "台灣牛肉自給率僅4.6%，卻在2024年誕生全國第一個民間認證牛品種。源興牛的故事，是一個94歲的老人、19頭野生黑牛、和一碗凌晨的溫體湯共同寫成的產業突圍劇本。",
    "city": "台南"
  },
  {
    "title": "美麗島事件",
    "lat": 22.627947,
    "lng": 120.306354,
    "category": "history",
    "region": "south",
    "link": "/history/%E7%BE%8E%E9%BA%97%E5%B3%B6%E4%BA%8B%E4%BB%B6",
    "lang": "zh-TW",
    "desc": "一場本應讓反對運動徹底崩潰的軍事審判，因公開轉播意外成為台灣民主最有力的宣傳片。",
    "city": "高雄"
  },
  {
    "title": "荷西明鄭時期",
    "lat": 23.003071,
    "lng": 120.225742,
    "category": "history",
    "region": "south",
    "link": "/history/%E8%8D%B7%E8%A5%BF%E6%98%8E%E9%84%AD%E6%99%82%E6%9C%9F",
    "lang": "zh-TW",
    "desc": "1624 年荷蘭人在臺南建立熱蘭遮城，到 1683 年施琅登陸澎湖為止——臺灣被寫進世界貿易地圖的六十年，和四個政權輪替的故事",
    "city": "台南"
  },
  {
    "title": "阿里山：帝國的林場與高一生的山",
    "lat": 23.511399,
    "lng": 120.696664,
    "category": "history",
    "region": "south",
    "link": "/history/%E9%98%BF%E9%87%8C%E5%B1%B1%EF%BC%9A%E5%B8%9D%E5%9C%8B%E7%9A%84%E6%9E%97%E5%A0%B4%E8%88%87%E9%AB%98%E4%B8%80%E7%94%9F%E7%9A%84%E5%B1%B1",
    "lang": "zh-TW",
    "desc": "1954 年 4 月 17 日，鄒族菁英高一生在安坑刑場被槍決。阿里山這座被稱為觀光勝地的山脈，其實是一座被兩個帝國先後改寫過的記憶之山。",
    "city": "嘉義"
  },
  {
    "title": "台灣 YouBike 文化與城市微交通革命",
    "lat": 25.026039,
    "lng": 121.562803,
    "category": "lifestyle",
    "region": "north",
    "link": "/lifestyle/%E5%8F%B0%E7%81%A3YouBike%E6%96%87%E5%8C%96%E8%88%87%E5%9F%8E%E5%B8%82%E5%BE%AE%E4%BA%A4%E9%80%9A%E9%9D%A9%E5%91%BD",
    "lang": "zh-TW",
    "desc": "從「最後一哩」到日常基礎設施，YouBike 如何用小額費率、密集站點與即時調度，改變台灣城市的移動習慣與時間感。",
    "city": "台北"
  },
  {
    "title": "台灣交通系統：一座島嶼怎麼把自己壓縮成 90 分鐘",
    "lat": 25.035407,
    "lng": 121.564218,
    "category": "lifestyle",
    "region": "north",
    "link": "/lifestyle/%E5%8F%B0%E7%81%A3%E4%BA%A4%E9%80%9A%E7%B3%BB%E7%B5%B1",
    "lang": "zh-TW",
    "desc": "1946 年台灣一夜之間從左駕變右駕。六十年後高鐵把 394 公里壓成 90 分鐘。再十年後，一千四百萬輛機車塞滿了每一個路口。這座島嶼的交通故事，就是它的身份故事。",
    "city": "台北"
  },
  {
    "title": "台灣便利商店文化",
    "lat": 25.027366,
    "lng": 121.56253,
    "category": "lifestyle",
    "region": "north",
    "link": "/lifestyle/%E5%8F%B0%E7%81%A3%E4%BE%BF%E5%88%A9%E5%95%86%E5%BA%97%E6%96%87%E5%8C%96",
    "lang": "zh-TW",
    "desc": "密度世界第一的便利商店王國，7-11與全家的在地化創新，重新定義現代生活方式",
    "city": "台北"
  },
  {
    "title": "台灣公園與日常休閒",
    "lat": 25.026314,
    "lng": 121.564664,
    "category": "lifestyle",
    "region": "north",
    "link": "/lifestyle/%E5%8F%B0%E7%81%A3%E5%85%AC%E5%9C%92%E8%88%87%E6%97%A5%E5%B8%B8%E4%BC%91%E9%96%92",
    "lang": "zh-TW",
    "desc": "從清晨太極到夜間散步——台灣公園作為跨世代社交場域的文化觀察",
    "city": "台北"
  },
  {
    "title": "台灣咖啡文化：便利商店一年賣六億杯的島嶼",
    "lat": 23.507982,
    "lng": 120.704623,
    "category": "lifestyle",
    "region": "south",
    "link": "/lifestyle/%E5%8F%B0%E7%81%A3%E5%92%96%E5%95%A1%E6%96%87%E5%8C%96",
    "lang": "zh-TW",
    "desc": "日治時期從雲林古坑種下的第一棵咖啡樹，一百年後長成了每五十公尺一家咖啡廳的都市風景。路易莎開到六百家，超過星巴克。阿里山咖啡打進國際賽。台灣人的咖啡，從來不只是咖啡。",
    "city": "嘉義"
  },
  {
    "title": "追垃圾車的島：台灣從垃圾危機到回收奇蹟",
    "lat": 25.039537,
    "lng": 121.570705,
    "category": "lifestyle",
    "region": "north",
    "link": "/lifestyle/%E5%8F%B0%E7%81%A3%E5%9B%9E%E6%94%B6%E8%88%87%E8%B3%87%E6%BA%90%E5%BE%AA%E7%92%B0%E6%96%87%E5%8C%96",
    "lang": "zh-TW",
    "desc": "一個1990年代有400座快滿的掩埋場、被國際媒體稱為「垃圾島」的地方，用貝多芬的音樂讓2,300萬人每天追垃圾車，30年後資源回收率超越多數歐洲國家",
    "city": "台北"
  },
  {
    "title": "當古典音樂變成垃圾車廣告歌：台灣最浪漫的環保革命",
    "lat": 25.027875,
    "lng": 121.563623,
    "category": "lifestyle",
    "region": "north",
    "link": "/lifestyle/%E5%8F%B0%E7%81%A3%E5%9E%83%E5%9C%BE%E8%BB%8A%E9%9F%B3%E6%A8%82",
    "lang": "zh-TW",
    "desc": "外國人聽到垃圾車播貝多芬的震驚表情，背後是台灣從「垃圾島」蛻變成環保模範的神奇故事",
    "city": "台北"
  },
  {
    "title": "台灣捷運發展史：一部用血與錢寫成的城市進化論",
    "lat": 25.038173,
    "lng": 121.569074,
    "category": "lifestyle",
    "region": "north",
    "link": "/lifestyle/%E5%8F%B0%E7%81%A3%E6%8D%B7%E9%81%8B%E7%99%BC%E5%B1%95%E5%8F%B2",
    "lang": "zh-TW",
    "desc": "209 噸鋼梁從天而降奪走 4 條人命，16.4 億賠款，台北捷運本業至今仍在虧錢——全台捷運背後的真實代價",
    "city": "台北"
  },
  {
    "title": "台灣教育制度：從聯考地獄到多元迷宮的島嶼實驗",
    "lat": 25.026093,
    "lng": 121.5713,
    "category": "lifestyle",
    "region": "north",
    "link": "/lifestyle/%E5%8F%B0%E7%81%A3%E6%95%99%E8%82%B2%E5%88%B6%E5%BA%A6",
    "lang": "zh-TW",
    "desc": "台灣花30年想破除聯考制度，結果最新的分科測驗讓重考班招生暴增一倍。一個島嶼如何在升學壓力與教育公平之間，反覆進行社會實驗？",
    "city": "台北"
  },
  {
    "title": "台灣機車文化",
    "lat": 25.032732,
    "lng": 121.56779,
    "category": "lifestyle",
    "region": "north",
    "link": "/lifestyle/%E5%8F%B0%E7%81%A3%E6%A9%9F%E8%BB%8A%E6%96%87%E5%8C%96",
    "lang": "zh-TW",
    "desc": "全球機車密度最高的國家不是因為愛騎車——是因為沒有別的選擇。現在它意外成了電動二輪的全球實驗場。",
    "city": "台北"
  },
  {
    "title": "台灣騎樓文化與街景",
    "lat": 25.028642,
    "lng": 121.56451,
    "category": "lifestyle",
    "region": "north",
    "link": "/lifestyle/%E5%8F%B0%E7%81%A3%E9%A8%8E%E6%A8%93%E6%96%87%E5%8C%96%E8%88%87%E8%A1%97%E6%99%AF",
    "lang": "zh-TW",
    "desc": "遮風避雨的生活廊道，機車、攤販與人情味交織的台灣街頭記憶",
    "city": "台北"
  },
  {
    "title": "台灣高鐵：從「零政府出資」到「國有民營」，20 年縮短 90 分鐘的代價",
    "lat": 23.709,
    "lng": 120.431,
    "category": "lifestyle",
    "region": "central",
    "link": "/lifestyle/%E5%8F%B0%E7%81%A3%E9%AB%98%E9%90%B5",
    "lang": "zh-TW",
    "desc": "1998 年殷琪簽下這份 BOT，承諾政府零出資。2015 年立法院 18 比 0 否決財改案，葉匡時當晚請辭。十七年間，台灣如何用 5,133 億與一場歐日技術戰爭，把南北距離壓縮到 90 分鐘？",
    "city": "雲林"
  },
  {
    "title": "夜生活與KTV文化",
    "lat": 25.025036,
    "lng": 121.564302,
    "category": "lifestyle",
    "region": "north",
    "link": "/lifestyle/%E5%A4%9C%E7%94%9F%E6%B4%BB%E8%88%87KTV%E6%96%87%E5%8C%96",
    "lang": "zh-TW",
    "desc": "從錢櫃包廂到深夜食堂，24 小時不打烊的島嶼夜生活",
    "city": "台北"
  },
  {
    "title": "宗教與民間信仰：從恐懼管理到信仰帝國",
    "lat": 25.031316,
    "lng": 121.565274,
    "category": "lifestyle",
    "region": "north",
    "link": "/lifestyle/%E5%AE%97%E6%95%99%E8%88%87%E6%B0%91%E9%96%93%E4%BF%A1%E4%BB%B0",
    "lang": "zh-TW",
    "desc": "台灣有全球最高廟宇密度，卻也是宗教自由世界第一——這套矛盾背後隱藏17世紀軍事移民的生存智慧",
    "city": "台北"
  },
  {
    "title": "小綠人：從交通號誌到國家符號的25年傳奇",
    "lat": 25.028717,
    "lng": 121.557832,
    "category": "lifestyle",
    "region": "north",
    "link": "/lifestyle/%E5%B0%8F%E7%B6%A0%E4%BA%BA",
    "lang": "zh-TW",
    "desc": "一位東京觀光客驚訝地停下腳步，目睹台北街頭的奇蹟——會跑步的紅綠燈。25年來，這個看似平凡的小綠人，如何從松智路的一盞燈，成為讓全世界為之驚艷的台灣文化符號？",
    "city": "台北"
  },
  {
    "title": "溫泉文化",
    "lat": 22.666931,
    "lng": 121.495046,
    "category": "lifestyle",
    "region": "east",
    "link": "/lifestyle/%E6%BA%AB%E6%B3%89%E6%96%87%E5%8C%96",
    "lang": "zh-TW",
    "desc": "從軍事療養到世界三大泥泉：台灣意外成為溫泉王國的故事",
    "city": "台東"
  },
  {
    "title": "五月天",
    "lat": 25.025435,
    "lng": 121.560067,
    "category": "music",
    "region": "north",
    "link": "/music/%E4%BA%94%E6%9C%88%E5%A4%A9",
    "lang": "zh-TW",
    "desc": "1997 年，五個師大附中的高中生在野台開唱用 BBS 代號報了名。三十年後，他們在台北大巨蛋十分鐘賣掉 32 萬張票，在北京鳥巢唱了 30 場，卻也在同一個舞台上說出讓台灣人心碎的四個字。",
    "city": "台北"
  },
  {
    "title": "台灣原住民音樂傳統",
    "lat": 22.686266,
    "lng": 120.48659,
    "category": "music",
    "region": "south",
    "link": "/music/%E5%8F%B0%E7%81%A3%E5%8E%9F%E4%BD%8F%E6%B0%91%E9%9F%B3%E6%A8%82%E5%82%B3%E7%B5%B1",
    "lang": "zh-TW",
    "desc": "探索台灣 16 族原住民豐富的音樂文化，從古調吟唱到傳統樂器，見證數千年文化傳承",
    "city": "屏東"
  },
  {
    "title": "台灣國樂：中國樂器上長出來的島嶼聲音",
    "lat": 25.029022,
    "lng": 121.564122,
    "category": "music",
    "region": "north",
    "link": "/music/%E5%8F%B0%E7%81%A3%E5%9C%8B%E6%A8%82",
    "lang": "zh-TW",
    "desc": "1949 年渡海而來的二胡和琵琶，七十年後在台灣演奏布農族的八部合音。台灣國樂如何從政治正統的象徵，演化成一個跟對岸截然不同的音樂物種。",
    "city": "台北"
  },
  {
    "title": "台灣樂器製造業：從后里薩克斯風到全球音樂工廠",
    "lat": 23.870452,
    "lng": 120.909747,
    "category": "music",
    "region": "central",
    "link": "/music/%E5%8F%B0%E7%81%A3%E6%A8%82%E5%99%A8%E8%A3%BD%E9%80%A0",
    "lang": "zh-TW",
    "desc": "探索台灣樂器製造業的發展歷程，從后里薩克斯風的全球霸主地位到吉他代工王國，再到音樂盒製造的精密工藝，台灣如何從代工走向自有品牌",
    "city": "南投"
  },
  {
    "title": "台灣民歌運動",
    "lat": 25.040466,
    "lng": 121.569552,
    "category": "music",
    "region": "north",
    "link": "/music/%E5%8F%B0%E7%81%A3%E6%B0%91%E6%AD%8C%E9%81%8B%E5%8B%95",
    "lang": "zh-TW",
    "desc": "從「唱自己的歌」到改變整個華語音樂圈——1970年代那場屬於年輕人的文化革命",
    "city": "台北"
  },
  {
    "title": "台灣獨立音樂：一間發不出薪水的唱片行，如何替一座島嶼打開耳朵",
    "lat": 25.03752,
    "lng": 121.566712,
    "category": "music",
    "region": "north",
    "link": "/music/%E5%8F%B0%E7%81%A3%E7%8D%A8%E7%AB%8B%E9%9F%B3%E6%A8%82",
    "lang": "zh-TW",
    "desc": "從水晶唱片負債三十萬頂下來的冒險，到草東沒有派對在咖啡店賣光首刷。台灣獨立音樂 35 年不是逆襲故事，是一群人堅持讓「沒被看見的聲音被聽見」的漫長賭局",
    "city": "台北"
  },
  {
    "title": "台灣聲音地景",
    "lat": 25.029033,
    "lng": 121.557582,
    "category": "music",
    "region": "north",
    "link": "/music/%E5%8F%B0%E7%81%A3%E8%81%B2%E9%9F%B3%E5%9C%B0%E6%99%AF",
    "lang": "zh-TW",
    "desc": "從垃圾車的致愛麗絲到布農族八部合音——用耳朵認識台灣",
    "city": "台北"
  },
  {
    "title": "台灣電子音樂與派對文化：從地下 Rave 到國際舞台",
    "lat": 25.04027,
    "lng": 121.56354,
    "category": "music",
    "region": "north",
    "link": "/music/%E5%8F%B0%E7%81%A3%E9%9B%BB%E5%AD%90%E9%9F%B3%E6%A8%82%E8%88%87%E6%B4%BE%E5%B0%8D%E6%96%87%E5%8C%96",
    "lang": "zh-TW",
    "desc": "從1990年代 Rave 派對文化到 Road to Ultra 電音節，台灣電子音樂如何從地下走向主流，孕育出國際級 DJ 與獨立電子廠牌",
    "city": "台北"
  },
  {
    "title": "台灣音樂祭文化：一座島嶼為什麼需要這麼多場戶外派對",
    "lat": 21.948,
    "lng": 120.803,
    "category": "music",
    "region": "south",
    "link": "/music/%E5%8F%B0%E7%81%A3%E9%9F%B3%E6%A8%82%E7%A5%AD%E6%96%87%E5%8C%96",
    "lang": "zh-TW",
    "desc": "從 1995 年墾丁沙灘上兩個美國人架起的舞台，到每年超過 50 場遍布全島的音樂祭。台灣的音樂祭密度可能是全世界最高，而開山鼻祖不是台灣人",
    "city": "屏東"
  },
  {
    "title": "滅火器——游泳池旁撿到的名字，唱了二十五年",
    "lat": 22.62799,
    "lng": 120.29482,
    "category": "music",
    "region": "south",
    "link": "/music/%E6%BB%85%E7%81%AB%E5%99%A8%E6%A8%82%E5%9C%98",
    "lang": "zh-TW",
    "desc": "2000 年三個高雄高中生在游泳池旁撿了一個滅火器當團名。二十五年後，他們用台語龐克唱出太陽花學運的時代之聲，把廠牌搬回南方，在打狗祭舞台上花七分鐘告訴全場：失望可以，但不要變成你討厭的那種人。",
    "city": "高雄"
  },
  {
    "title": "台灣原住民生態智慧與環境保育",
    "lat": 23.992,
    "lng": 121.602,
    "category": "nature",
    "region": "east",
    "link": "/nature/%E5%8F%B0%E7%81%A3%E5%8E%9F%E4%BD%8F%E6%B0%91%E7%94%9F%E6%85%8B%E6%99%BA%E6%85%A7%E8%88%87%E7%92%B0%E5%A2%83%E4%BF%9D%E8%82%B2",
    "lang": "zh-TW",
    "desc": "探討台灣原住民族數千年來累積的傳統生態知識，以及在現代環境保育中的重要價值與實踐方式",
    "city": "花蓮"
  },
  {
    "title": "島嶼的山海之巔：台灣國家公園的生態與地景",
    "lat": 23.463328,
    "lng": 120.962512,
    "category": "nature",
    "region": "central",
    "link": "/nature/%E5%8F%B0%E7%81%A3%E5%9C%8B%E5%AE%B6%E5%85%AC%E5%9C%92",
    "lang": "zh-TW",
    "desc": "探索台灣九座國家公園的獨特生態系統與保育價值，從亞熱帶海岸到高山雪線的完整地景",
    "city": "南投"
  },
  {
    "title": "台灣山岳與登山文化",
    "lat": 23.470611,
    "lng": 120.954435,
    "category": "nature",
    "region": "central",
    "link": "/nature/%E5%8F%B0%E7%81%A3%E5%B1%B1%E5%B2%B3%E8%88%87%E7%99%BB%E5%B1%B1%E6%96%87%E5%8C%96",
    "lang": "zh-TW",
    "desc": "268座三千公尺高山擠在一座島上，台灣人卻花了半世紀才被允許自由爬自己的山",
    "city": "南投"
  },
  {
    "title": "台灣島嶼博物學：島嶼與世界的生命對話",
    "lat": 22.907,
    "lng": 121.122,
    "category": "nature",
    "region": "east",
    "link": "/nature/%E5%8F%B0%E7%81%A3%E5%B3%B6%E5%B6%BC%E5%8D%9A%E7%89%A9%E5%AD%B8",
    "lang": "zh-TW",
    "desc": "從冰河時期的陸橋遷徙到南島語族的構樹基因，台灣不僅是生物的避難所，更是演化的十字路口。透過博物學家的雙眼，重新發現這座島嶼如何與世界進行生命對話。",
    "city": "台東"
  },
  {
    "title": "台灣森林生態系",
    "lat": 23.475687,
    "lng": 120.953793,
    "category": "nature",
    "region": "central",
    "link": "/nature/%E5%8F%B0%E7%81%A3%E6%A3%AE%E6%9E%97%E7%94%9F%E6%85%8B%E7%B3%BB",
    "lang": "zh-TW",
    "desc": "一趟從海平面到玉山頂峰的垂直旅行，穿越地球上最密集的森林光譜",
    "city": "南投"
  },
  {
    "title": "台灣氣候危機與淨零轉型",
    "lat": 24.074516,
    "lng": 120.534,
    "category": "nature",
    "region": "central",
    "link": "/nature/%E5%8F%B0%E7%81%A3%E6%B0%A3%E5%80%99%E5%8D%B1%E6%A9%9F%E8%88%87%E6%B7%A8%E9%9B%B6%E8%BD%89%E5%9E%8B",
    "lang": "zh-TW",
    "desc": "升溫速度比全球快一半、98% 能源靠進口——一座島嶼賭上 9 兆台幣重建自己的能源系統",
    "city": "彰化"
  },
  {
    "title": "台灣海洋保育：為什麼花30年建成的體系，救不了一場珊瑚白化？",
    "lat": 22.338,
    "lng": 120.373,
    "category": "nature",
    "region": "south",
    "link": "/nature/%E5%8F%B0%E7%81%A3%E6%B5%B7%E6%B4%8B%E4%BF%9D%E8%82%B2%E8%88%87%E6%8C%91%E6%88%B0",
    "lang": "zh-TW",
    "desc": "2020年，台灣海域經歷史上最大規模珊瑚白化。從小琉球到東沙環礁，連保護區內的珊瑚都在高溫中死去。這暴露了什麼問題？",
    "city": "屏東"
  },
  {
    "title": "台灣海洋污染治理與保育挑戰",
    "lat": 22.337372,
    "lng": 120.373793,
    "category": "nature",
    "region": "south",
    "link": "/nature/%E5%8F%B0%E7%81%A3%E6%B5%B7%E6%B4%8B%E6%B1%A1%E6%9F%93%E6%B2%BB%E7%90%86%E8%88%87%E4%BF%9D%E8%82%B2%E6%8C%91%E6%88%B0",
    "lang": "zh-TW",
    "desc": "面對海洋廢棄物、過度捕撈與氣候變遷，探討台灣海洋保育的現況、挑戰與創新解決方案",
    "city": "屏東"
  },
  {
    "title": "台灣海洋生態",
    "lat": 22.030093,
    "lng": 121.556475,
    "category": "nature",
    "region": "east",
    "link": "/nature/%E5%8F%B0%E7%81%A3%E6%B5%B7%E6%B4%8B%E7%94%9F%E6%85%8B",
    "lang": "zh-TW",
    "desc": "達悟族用禁忌守護的海域，如今在高溫與水下噪音中白化：當數千年生態智慧遇上現代海洋危機",
    "city": "台東"
  },
  {
    "title": "台灣海洋生態與珊瑚礁保育",
    "lat": 21.943006,
    "lng": 120.797566,
    "category": "nature",
    "region": "south",
    "link": "/nature/%E5%8F%B0%E7%81%A3%E6%B5%B7%E6%B4%8B%E7%94%9F%E6%85%8B%E8%88%87%E7%8F%8A%E7%91%9A%E7%A4%81%E4%BF%9D%E8%82%B2",
    "lang": "zh-TW",
    "desc": "台灣四面環海擁有豐富海洋生態，從珊瑚礁白化危機到鯨豚保育，探討海洋國家公園的保護成效與未來挑戰",
    "city": "屏東"
  },
  {
    "title": "台灣溫泉與地熱",
    "lat": 22.658544,
    "lng": 121.501165,
    "category": "nature",
    "region": "east",
    "link": "/nature/%E5%8F%B0%E7%81%A3%E6%BA%AB%E6%B3%89%E8%88%87%E5%9C%B0%E7%86%B1",
    "lang": "zh-TW",
    "desc": "從 30 年前失敗的地熱電廠到世界唯一北投石：一座島嶼如何把地底之火變成療癒與綠電",
    "city": "台東"
  },
  {
    "title": "台灣石虎保育",
    "lat": 24.565567,
    "lng": 120.827165,
    "category": "nature",
    "region": "central",
    "link": "/nature/%E5%8F%B0%E7%81%A3%E7%9F%B3%E8%99%8E%E4%BF%9D%E8%82%B2",
    "lang": "zh-TW",
    "desc": "全台剩不到五百隻的幽靈貓——當最後的原生貓科走上消失的邊緣",
    "city": "苗栗"
  },
  {
    "title": "台灣穿山甲",
    "lat": 25.025244,
    "lng": 121.564213,
    "category": "nature",
    "region": "north",
    "link": "/nature/%E5%8F%B0%E7%81%A3%E7%A9%BF%E5%B1%B1%E7%94%B2",
    "lang": "zh-TW",
    "desc": "全世界被走私最多的哺乳動物，在台灣找到了一個安全的家",
    "city": "台北"
  },
  {
    "title": "台灣高山生態系與冰河孑遺",
    "lat": 23.477939,
    "lng": 120.961084,
    "category": "nature",
    "region": "central",
    "link": "/nature/%E5%8F%B0%E7%81%A3%E9%AB%98%E5%B1%B1%E7%94%9F%E6%85%8B%E7%B3%BB%E8%88%87%E5%86%B0%E6%B2%B3%E5%AD%91%E9%81%BA",
    "lang": "zh-TW",
    "desc": "探討台灣3000公尺以上高山環境的獨特生態系統，從台灣杉、玉山杜鵑到冰河時期孑遺物種的珍貴生物多樣性",
    "city": "南投"
  },
  {
    "title": "台灣黑熊",
    "lat": 25.038257,
    "lng": 121.557546,
    "category": "nature",
    "region": "north",
    "link": "/nature/%E5%8F%B0%E7%81%A3%E9%BB%91%E7%86%8A",
    "lang": "zh-TW",
    "desc": "胸前的白色 V 字是牠的簽名——台灣山林最後的王者，與牠未完的保育戰",
    "city": "台北"
  },
  {
    "title": "國家公園",
    "lat": 24.158,
    "lng": 121.621,
    "category": "nature",
    "region": "east",
    "link": "/nature/%E5%9C%8B%E5%AE%B6%E5%85%AC%E5%9C%92",
    "lang": "zh-TW",
    "desc": "36,197 平方公里塞進 9 座國家公園，密度世界第一的保育奇蹟",
    "city": "花蓮"
  },
  {
    "title": "特有種",
    "lat": 23.464917,
    "lng": 120.958747,
    "category": "nature",
    "region": "central",
    "link": "/nature/%E7%89%B9%E6%9C%89%E7%A8%AE",
    "lang": "zh-TW",
    "desc": "台灣豐富的特有種生物，展現島嶼生物地理學的演化奇蹟與保育重要性",
    "city": "南投"
  },
  {
    "title": "生態多樣性",
    "lat": 23.46345,
    "lng": 120.963051,
    "category": "nature",
    "region": "central",
    "link": "/nature/%E7%94%9F%E6%85%8B%E5%A4%9A%E6%A8%A3%E6%80%A7",
    "lang": "zh-TW",
    "desc": "台灣面積僅佔全球0.025%，卻擁有超過5萬種生物，森林覆蓋率60.71%排名全球第33位",
    "city": "南投"
  },
  {
    "title": "臺灣的鯨豚",
    "lat": 23.995998,
    "lng": 121.60693,
    "category": "nature",
    "region": "east",
    "link": "/nature/%E8%87%BA%E7%81%A3%E7%9A%84%E9%AF%A8%E8%B1%9A",
    "lang": "zh-TW",
    "desc": "全球三分之一鯨豚物種的棲息地——從昔日捕鯨到今日賞鯨，臺灣如何轉身成為海洋生態研究重鎮？",
    "city": "花蓮"
  },
  {
    "title": "蘭嶼生態系：黑潮邊境的生命密碼",
    "lat": 22.030047,
    "lng": 121.553129,
    "category": "nature",
    "region": "east",
    "link": "/nature/%E8%98%AD%E5%B6%BC%E7%94%9F%E6%85%8B%E7%B3%BB",
    "lang": "zh-TW",
    "desc": "蘭嶼不屬於台灣，至少在生物學上如此。這座菲律賓火山島弧最北端的小島，被黑潮帶來的熱帶生命填滿，又在達悟族千年的生態智慧中，找到了人與自然的平衡。",
    "city": "台東"
  },
  {
    "title": "當「護國神山」成為雙面刃：台灣與颱風的地理宿命",
    "lat": 22.633942,
    "lng": 120.302654,
    "category": "nature",
    "region": "south",
    "link": "/nature/%E9%A2%B1%E9%A2%A8",
    "lang": "zh-TW",
    "desc": "從日治時期的氣象觀測到莫拉克滅村，再到颱風假文化與科技預警，重新理解這座島嶼如何與每年 3.5 個颱風共生。",
    "city": "高雄"
  },
  {
    "title": "Cicada：從 2009 年莫拉克到 2022 年丹大溪源的十五年田野錄音",
    "lat": 22.031333,
    "lng": 121.549142,
    "category": "people",
    "region": "east",
    "link": "/people/Cicada",
    "lang": "zh-TW",
    "desc": "2009 年在台北成立的 Cicada 是全器樂、無人聲的獨立樂團。創團鋼琴手江致潔（北藝大藝術史碩士）因為看到那年莫拉克颱風的新聞寫下第一批曲子。之後十五年，他們把台灣的海岸消逝、海洋生態、山林溪源變成一張張沒有人聲的專輯。2022 年《棲居在溪源之上》是一場 15 天、120 公里的中央山脈遠征產物；配樂作品獲日本 Academy Prize。2024 年《回返》回到西海岸「之間」——山與水、森林與土地的那段間隙。",
    "city": "台東"
  },
  {
    "title": "伍佰",
    "lat": 23.485258,
    "lng": 120.450135,
    "category": "people",
    "region": "south",
    "link": "/people/%E4%BC%8D%E4%BD%B0",
    "lang": "zh-TW",
    "desc": "台灣搖滾國寶，本土搖滾樂的代名詞，以《挪威的森林》等作品奠定搖滾地位",
    "city": "嘉義"
  },
  {
    "title": "劉安婷",
    "lat": 24.14616,
    "lng": 120.670638,
    "category": "people",
    "region": "central",
    "link": "/people/%E5%8A%89%E5%AE%89%E5%A9%B7",
    "lang": "zh-TW",
    "desc": "2008 年從台中女中進普林斯頓，2013 年 23 歲辭紐約顧問工作回台灣創辦 TFT 為台灣而教。2016 年在成大畢業典禮問了一句「你拿幸運做什麼？」，那句話變成整整一代人的集體語錄。但她最常講的另一句話是「不要相信我個人」。2024 年 10 週年後，她把 TFT 董事長交給林妍希，自己轉任董事。她最好的作品不是 TFT，是讓 TFT 可以不在她身上。",
    "city": "台中"
  },
  {
    "title": "史溫侯：當外交官變成博物學家",
    "lat": 25.167211,
    "lng": 121.432907,
    "category": "people",
    "region": "north",
    "link": "/people/%E5%8F%B2%E6%BA%AB%E4%BE%AF",
    "lang": "zh-TW",
    "desc": "1856年，一個19歲的英國翻譯官在福爾摩沙西海岸記下他看到的第一隻鳥。四年後，他以52篇論文讓世界第一次認識這座島上住著什麼生物。他41歲死在倫敦，但他命名的物種至今仍在台灣的山林裡活著。",
    "city": "新北"
  },
  {
    "title": "吳哲宇 — 用程式碼創造生命的新媒體藝術家",
    "lat": 25.031355,
    "lng": 121.563577,
    "category": "people",
    "region": "north",
    "link": "/people/%E5%90%B3%E5%93%B2%E5%AE%87",
    "lang": "zh-TW",
    "desc": "從台灣走向威尼斯雙年展、Art Basel Miami 的生成藝術先驅，用演算法在數位世界中鍛造永恆",
    "city": "台北"
  },
  {
    "title": "吳寶春：一個對排灣族孩子的承諾",
    "lat": 22.682633,
    "lng": 120.484595,
    "category": "people",
    "region": "south",
    "link": "/people/%E5%90%B3%E5%AF%B6%E6%98%A5",
    "lang": "zh-TW",
    "desc": "屏東農村子弟，中學學歷，不會法語。他用一條荔枝玫瑰麵包在巴黎拿下全球第一個麵包大師金牌——裡面裝著一個十年前對原住民孩子許下的承諾。",
    "city": "屏東"
  },
  {
    "title": "呂秀蓮",
    "lat": 24.996424,
    "lng": 121.296958,
    "category": "people",
    "region": "north",
    "link": "/people/%E5%91%82%E7%A7%80%E8%93%AE",
    "lang": "zh-TW",
    "desc": "從叛亂犯到副總統：華人世界第一位女性副總統的傳奇人生",
    "city": "桃園"
  },
  {
    "title": "周子瑜",
    "lat": 22.997703,
    "lng": 120.221969,
    "category": "people",
    "region": "south",
    "link": "/people/%E5%91%A8%E5%AD%90%E7%91%9C",
    "lang": "zh-TW",
    "desc": "一個從未談過政治的台南女孩，被一面 8 秒的國旗變成台灣命運的轉捩點。十年後她在大巨蛋念出親筆信：「我沒有離開，不是因為乖，是因為我真的渴望」。",
    "city": "台南"
  },
  {
    "title": "嚴長壽：郵件室小弟到觀光教父，然後他把一切都丟了",
    "lat": 22.756,
    "lng": 121.144,
    "category": "people",
    "region": "east",
    "link": "/people/%E5%9A%B4%E9%95%B7%E5%A3%BD",
    "lang": "zh-TW",
    "desc": "高中學歷，23 歲在美國運通送信。五年後當上總經理。再五年成為亞洲頂級飯店總裁，發明了「客人還沒下車就叫出名字」的服務系統。60 萬本暢銷書。然後他 62 歲辭職去台東偏鄉辦學校，隔年切了一顆腎。78 歲在太平洋邊蓋了一座藝術園區。",
    "city": "台東"
  },
  {
    "title": "安芝儇",
    "lat": 22.626324,
    "lng": 120.308851,
    "category": "people",
    "region": "south",
    "link": "/people/%E5%AE%89%E8%8A%9D%E5%84%87",
    "lang": "zh-TW",
    "desc": "從韓國職業應援到移居高雄，她把「來台演出」推進成「在台生活」的韓籍啦啦隊新路徑。",
    "city": "高雄"
  },
  {
    "title": "幾米",
    "lat": 24.752,
    "lng": 121.753,
    "category": "people",
    "region": "north",
    "link": "/people/%E5%B9%BE%E7%B1%B3",
    "lang": "zh-TW",
    "desc": "用繪本溫暖世界的插畫詩人，讓台灣繪本走上國際舞台",
    "city": "宜蘭"
  },
  {
    "title": "康士坦的變化球：「樂團不是靠堅持，不好玩就散了」的十年",
    "lat": 23.517811,
    "lng": 120.693025,
    "category": "people",
    "region": "south",
    "link": "/people/%E5%BA%B7%E5%A3%AB%E5%9D%A6%E7%9A%84%E8%AE%8A%E5%8C%96%E7%90%83",
    "lang": "zh-TW",
    "desc": "2013 年成立於台北的四人獨立樂團，團名結合希臘哲學家 Heraclitus 的「萬物皆流」與棒球投手的變化球。主唱 ARNY 是菲律賓出生、曾在滅火器打過貝斯的 20 年音樂人；鼓手小米罹患類風濕性關節炎至今拇指無法彎曲仍然打鼓；貝斯手金毛說「樂團不是靠堅持，不好玩就散了」。他們從 Legacy 兩人觀眾唱到 2023 年北流 5,000 人，中間沒有暴紅、沒有爆款單曲——只有十年的穩步進化。",
    "city": "嘉義"
  },
  {
    "title": "張雨生：從偶像到預言家，一場跨越時代的音樂實驗",
    "lat": 25.038266,
    "lng": 121.571712,
    "category": "people",
    "region": "north",
    "link": "/people/%E5%BC%B5%E9%9B%A8%E7%94%9F",
    "lang": "zh-TW",
    "desc": "他曾是唱著《我的未來不是夢》的國民偶像，卻在事業巔峰選擇一條「市場自殺」的創作路徑。張雨生，一位用生命預言台灣流行音樂未來的音樂魔術師。",
    "city": "台北"
  },
  {
    "title": "戴資穎",
    "lat": 22.629618,
    "lng": 120.306289,
    "category": "people",
    "region": "south",
    "link": "/people/%E6%88%B4%E8%B3%87%E7%A9%8E",
    "lang": "zh-TW",
    "desc": "214週世界球后紀錄保持者，從高雄前鎮到奧運銀牌的台灣羽球女王",
    "city": "高雄"
  },
  {
    "title": "曾雅妮",
    "lat": 24.998837,
    "lng": 121.305086,
    "category": "people",
    "region": "north",
    "link": "/people/%E6%9B%BE%E9%9B%85%E5%A6%AE",
    "lang": "zh-TW",
    "desc": "109週世界第一，LPGA 15冠5大賽，22歲成史上最年輕擁有5座大賽金盃的球員，超越老虎伍茲的紀錄；2025年結束11年冠軍荒，再度封后",
    "city": "桃園"
  },
  {
    "title": "李仙得：締約者與出賣者是同一個人",
    "lat": 22.006,
    "lng": 120.745,
    "category": "people",
    "region": "south",
    "link": "/people/%E6%9D%8E%E4%BB%99%E5%BE%97",
    "lang": "zh-TW",
    "desc": "1867年，美國商船羅發號在恆春半島船難，14人被排灣族殺害。美國領事李仙得八次來台交涉，跟原住民首領卓杞篤簽了一份沒有清政府參與的協議。然後他帶著對福爾摩沙的全部了解，跳槽到日本政府。五年後，日本用他的情報出兵台灣。",
    "city": "屏東"
  },
  {
    "title": "李昂",
    "lat": 24.04899,
    "lng": 120.433165,
    "category": "people",
    "region": "central",
    "link": "/people/%E6%9D%8E%E6%98%82",
    "lang": "zh-TW",
    "desc": "《殺夫》《迷園》作者，台灣女性主義文學先鋒",
    "city": "彰化"
  },
  {
    "title": "李智凱",
    "lat": 24.744591,
    "lng": 121.753341,
    "category": "people",
    "region": "north",
    "link": "/people/%E6%9D%8E%E6%99%BA%E5%87%B1",
    "lang": "zh-TW",
    "desc": "從《翻滾吧！男孩》的菜市場凱到奧運銀牌，台灣鞍馬王子十六年的翻滾人生",
    "city": "宜蘭"
  },
  {
    "title": "李洋",
    "lat": 25.035719,
    "lng": 121.561339,
    "category": "people",
    "region": "north",
    "link": "/people/%E6%9D%8E%E6%B4%8B",
    "lang": "zh-TW",
    "desc": "咬著牙拚過甲組的少年，現在咬著牙拚體邪：兩屆奧運羽球男雙金牌、史上最年輕部長、存款 3401 萬、債務 3638 萬、補頒一千萬獎金全捐",
    "city": "台北"
  },
  {
    "title": "李遠哲",
    "lat": 24.808098,
    "lng": 120.96294,
    "category": "people",
    "region": "north",
    "link": "/people/%E6%9D%8E%E9%81%A0%E5%93%B2",
    "lang": "zh-TW",
    "desc": "1986 年諾貝爾化學獎得主，以交叉分子束技術開創化學動力學新領域，台灣首位諾貝爾科學獎得主",
    "city": "新竹"
  },
  {
    "title": "杜聰明",
    "lat": 22.620371,
    "lng": 120.306548,
    "category": "people",
    "region": "south",
    "link": "/people/%E6%9D%9C%E8%81%B0%E6%98%8E",
    "lang": "zh-TW",
    "desc": "台灣第一位醫學博士，發明漸進斷癮法在17年間幫助11498人戒除鴉片，高雄醫學大學創辦人",
    "city": "高雄"
  },
  {
    "title": "林書豪",
    "lat": 25.006374,
    "lng": 121.468362,
    "category": "people",
    "region": "north",
    "link": "/people/%E6%9E%97%E6%9B%B8%E8%B1%AA",
    "lang": "zh-TW",
    "desc": "高中州冠軍沒拿到獎學金，選秀沒人要，15天內被裁兩次——然後他讓全世界認識了「林來瘋」",
    "city": "新北"
  },
  {
    "title": "林義傑",
    "lat": 25.035572,
    "lng": 121.572239,
    "category": "people",
    "region": "north",
    "link": "/people/%E6%9E%97%E7%BE%A9%E5%82%91",
    "lang": "zh-TW",
    "desc": "從被田徑隊拒絕的瘦小孩，到徒步橫越撒哈拉沙漠創造歷史的極地跑者",
    "city": "台北"
  },
  {
    "title": "林義雄",
    "lat": 24.750108,
    "lng": 121.748206,
    "category": "people",
    "region": "north",
    "link": "/people/%E6%9E%97%E7%BE%A9%E9%9B%84",
    "lang": "zh-TW",
    "desc": "民主運動先驅，林宅血案受害者，反核四運動領袖",
    "city": "宜蘭"
  },
  {
    "title": "柯文哲",
    "lat": 25.036914,
    "lng": 121.560962,
    "category": "people",
    "region": "north",
    "link": "/people/%E6%9F%AF%E6%96%87%E5%93%B2",
    "lang": "zh-TW",
    "desc": "從葉克膜 SOP 建立者到第三勢力旗手，台灣第一位無黨籍台北市長的跌宕政治史",
    "city": "台北"
  },
  {
    "title": "楊丞琳：從天氣女團 Rainie 到自製〈曖昧 2025〉的製作人欄",
    "lat": 25.027157,
    "lng": 121.564541,
    "category": "people",
    "region": "north",
    "link": "/people/%E6%A5%8A%E4%B8%9E%E7%90%B3",
    "lang": "zh-TW",
    "desc": "2025 年 9 月 9 日，楊丞琳在《曖昧》原版 20 週年的同月同日，發行自己製作的〈曖昧 2025〉。這位從 2000 年 BMG 虛擬女團 4 in Love 出道、2005 年〈曖昧〉紅遍華語圈、2012 年紅磡倒吊三公尺演唱〈帶我走〉整臉微血管爆裂的女歌手，花了二十五年在每個舞台跟「被誰定義」協商——直到製作人那一欄寫下自己的名字。",
    "city": "台北"
  },
  {
    "title": "楊德昌",
    "lat": 25.032948,
    "lng": 121.563591,
    "category": "people",
    "region": "north",
    "link": "/people/%E6%A5%8A%E5%BE%B7%E6%98%8C",
    "lang": "zh-TW",
    "desc": "台灣新電影運動核心人物，坎城最佳導演，都市疏離的詩人",
    "city": "台北"
  },
  {
    "title": "江振誠",
    "lat": 25.025172,
    "lng": 121.570224,
    "category": "people",
    "region": "north",
    "link": "/people/%E6%B1%9F%E6%8C%AF%E8%AA%A0",
    "lang": "zh-TW",
    "desc": "從淡水商工到世界第14、塞舌爾的頓悟到台北大直的回歸，André Chiang 以八角哲學在國際餐飲界為台灣廚師確立了一個新座標",
    "city": "台北"
  },
  {
    "title": "洪醒夫：提早隕落的鄉土文學巨星",
    "lat": 24.086107,
    "lng": 120.535469,
    "category": "people",
    "region": "central",
    "link": "/people/%E6%B4%AA%E9%86%92%E5%A4%AB",
    "lang": "zh-TW",
    "desc": "1949年出生於彰化二林貧苦農家的洪醒夫，18歲發表第一篇小說，33歲因車禍離世前以小學教師身份創作鄉土文學，用短短15年寫出《黑面慶仔》、《吾土》、《散戲》等經典，捕捉台灣農村從農業到工商轉型的真實面貌，被文友戲稱「洪醒夫斯基」，成為戰後台灣文學不可磨滅的田莊之聲。",
    "city": "彰化"
  },
  {
    "title": "白先勇",
    "lat": 25.031579,
    "lng": 121.570685,
    "category": "people",
    "region": "north",
    "link": "/people/%E7%99%BD%E5%85%88%E5%8B%87",
    "lang": "zh-TW",
    "desc": "《台北人》作者，現代文學大師與崑曲復興推手",
    "city": "台北"
  },
  {
    "title": "盧廣仲：被公車輾過的三金天王",
    "lat": 23.006463,
    "lng": 120.228086,
    "category": "people",
    "region": "south",
    "link": "/people/%E7%9B%A7%E5%BB%A3%E4%BB%B2",
    "lang": "zh-TW",
    "desc": "2003 年台南男孩騎車買宵夜，公車輾過他的腿，粉碎性骨折。住院無聊，撿起表哥給的吉他。22 年後，他是台灣史上最年輕的三金大滿貫得主：金曲、金鐘、金馬，用一把吉他跟一雙斷過的腿走完的路。",
    "city": "台南"
  },
  {
    "title": "草東沒有派對：從陽明山草東街到兩座金曲最佳樂團的十二年",
    "lat": 25.158,
    "lng": 121.549,
    "category": "people",
    "region": "north",
    "link": "/people/%E8%8D%89%E6%9D%B1%E6%B2%92%E6%9C%89%E6%B4%BE%E5%B0%8D",
    "lang": "zh-TW",
    "desc": "2017 年金曲 28，一個自費壓 2,000 張 CD 的四人樂團壓倒性擊敗五月天拿下三座。他們消失了七年，橫跨鼓手凡凡 2021 年在防疫旅館過世與兩年沉默。2023 年用《瓦合》回歸，2024 金曲 35 拿下年度專輯 + 最佳華語 + 最佳樂團三冠，經紀人代領：「草東從來不只是站在舞台上的 4 個人。」",
    "city": "台北"
  },
  {
    "title": "莊智淵",
    "lat": 22.62075,
    "lng": 120.299392,
    "category": "people",
    "region": "south",
    "link": "/people/%E8%8E%8A%E6%99%BA%E6%B7%B5",
    "lang": "zh-TW",
    "desc": "桌球教父，四屆奧運代表，獨自苦練的孤獨英雄",
    "city": "高雄"
  },
  {
    "title": "蔡明亮",
    "lat": 25.028179,
    "lng": 121.562833,
    "category": "people",
    "region": "north",
    "link": "/people/%E8%94%A1%E6%98%8E%E4%BA%AE",
    "lang": "zh-TW",
    "desc": "威尼斯金獅獎得主，馬來西亞華人，慢電影美學大師",
    "city": "台北"
  },
  {
    "title": "蔣中正",
    "lat": 25.033477,
    "lng": 121.525159,
    "category": "people",
    "region": "north",
    "link": "/people/%E8%94%A3%E4%B8%AD%E6%AD%A3",
    "lang": "zh-TW",
    "desc": "他的銅像正在被搬走，但他奠下的地基——無論你稱之為建設或枷鎖——還在撐著這座島的每一條路、每一間學校、每一次選舉。",
    "city": "台北"
  },
  {
    "title": "蕭美琴",
    "lat": 23.992501,
    "lng": 121.595622,
    "category": "people",
    "region": "east",
    "link": "/people/%E8%95%AD%E7%BE%8E%E7%90%B4",
    "lang": "zh-TW",
    "desc": "日本出生、台南小學、新澤西長大、歐柏林畢業的「戰貓」，如何成為台灣歷史上最成功的對美代表，然後坐上副總統大位？",
    "city": "花蓮"
  },
  {
    "title": "許文龍",
    "lat": 22.939215,
    "lng": 120.232746,
    "category": "people",
    "region": "south",
    "link": "/people/%E8%A8%B1%E6%96%87%E9%BE%8D",
    "lang": "zh-TW",
    "desc": "奇美集團創辦人，企業家、小提琴家、藝術收藏家的三重身份，奇美博物館創建者",
    "city": "台南"
  },
  {
    "title": "許芳宜",
    "lat": 24.75323,
    "lng": 121.754984,
    "category": "people",
    "region": "north",
    "link": "/people/%E8%A8%B1%E8%8A%B3%E5%AE%9C",
    "lang": "zh-TW",
    "desc": "從宜蘭女孩到瑪乘舞團首席，再回台灣創立拉芳舞團——她用身體說出台灣最有力量的故事",
    "city": "宜蘭"
  },
  {
    "title": "賴清德：從礦工家庭到總統府的公共衛生醫師",
    "lat": 23.005418,
    "lng": 120.228677,
    "category": "people",
    "region": "south",
    "link": "/people/%E8%B3%B4%E6%B8%85%E5%BE%B7",
    "lang": "zh-TW",
    "desc": "台灣第16任總統，中華民國憲政史上首位以副總統身分參選並成功當選的政治人物",
    "city": "台南"
  },
  {
    "title": "郁永河",
    "lat": 25.168668,
    "lng": 121.439626,
    "category": "people",
    "region": "north",
    "link": "/people/%E9%83%81%E6%B0%B8%E6%B2%B3",
    "lang": "zh-TW",
    "desc": "1697年，一個杭州書生自願跑到瘴癘之地台灣採硫磺，從台南徒步走到北投，寫下台灣最早的北部紀實文學",
    "city": "新北"
  },
  {
    "title": "郭婞淳",
    "lat": 23.563231,
    "lng": 119.574229,
    "category": "people",
    "region": "islands",
    "link": "/people/%E9%83%AD%E5%A9%9E%E6%B7%B3",
    "lang": "zh-TW",
    "desc": "台灣舉重選手，三屆奧運獎牌得主（2016 銅牌、2021 金牌、2024 銅牌），59 公斤級世界紀錄保持人，阿美族馬蘭部落後裔",
    "city": "澎湖"
  },
  {
    "title": "郭金發：燒肉粽背後的低音靈魂",
    "lat": 22.626321,
    "lng": 120.29803,
    "category": "people",
    "region": "south",
    "link": "/people/%E9%83%AD%E9%87%91%E7%99%BC",
    "lang": "zh-TW",
    "desc": "從大稻埕皮鞋店學徒到寶島低音歌王，郭金發以一曲〈燒肉粽〉唱出台灣戰後庶民的辛酸與韌性，並在舞台上燃盡最後一絲生命。",
    "city": "高雄"
  },
  {
    "title": "鄧雨賢",
    "lat": 25.000789,
    "lng": 121.29609,
    "category": "people",
    "region": "north",
    "link": "/people/%E9%84%A7%E9%9B%A8%E8%B3%A2",
    "lang": "zh-TW",
    "desc": "台灣歌謠之父，創作《望春風》《雨夜花》《月夜愁》等經典台語歌謠",
    "city": "桃園"
  },
  {
    "title": "鄭南榕",
    "lat": 25.033766,
    "lng": 121.571036,
    "category": "people",
    "region": "north",
    "link": "/people/%E9%84%AD%E5%8D%97%E6%A6%95",
    "lang": "zh-TW",
    "desc": "他在創刊前就準備了24張雜誌執照，因為他知道政府會一直關他的刊——一個「外省囝仔」如何為整座島嶼的言論自由而死",
    "city": "台北"
  },
  {
    "title": "鄭宜農：用最陌生的語言寫最誠實的歌——從 2016 身份公開到 2023 金曲台語雙獎的七年",
    "lat": 24.74798,
    "lng": 121.753989,
    "category": "people",
    "region": "north",
    "link": "/people/%E9%84%AD%E5%AE%9C%E8%BE%B2",
    "lang": "zh-TW",
    "desc": "1987 年生鄭宜農（Enno Cheng），父親是新電影導演鄭文堂。2007 年演員出道金馬入圍，2016 Facebook 出櫃同月離婚，2022 年首張全台語專輯《水逆》，2023 金曲 34 拿下最佳台語女歌手 + 最佳台語專輯雙獎。她說：「那我直接用一個我沒有這麼熟悉的語言，讓我自己變得很困難。」",
    "city": "宜蘭"
  },
  {
    "title": "鄭成功",
    "lat": 22.999362,
    "lng": 120.233284,
    "category": "people",
    "region": "south",
    "link": "/people/%E9%84%AD%E6%88%90%E5%8A%9F",
    "lang": "zh-TW",
    "desc": "一個中日混血海盜之子，用十六年抗清、九個月攻台、五個月建國，然後在三十七歲暴斃——他的名字至今被四個政權爭相認領",
    "city": "台南"
  },
  {
    "title": "鄭麗文",
    "lat": 25.03507,
    "lng": 121.561335,
    "category": "people",
    "region": "north",
    "link": "/people/%E9%84%AD%E9%BA%97%E6%96%87",
    "lang": "zh-TW",
    "desc": "從 1988 年台大校門為台獨絕食的學運女孩，到 2026 年在北京對習近平說「兩岸同胞都是中國人」的國民黨主席。這條軌跡上發生過什麼？",
    "city": "台北"
  },
  {
    "title": "鍾理和",
    "lat": 22.625662,
    "lng": 120.299526,
    "category": "people",
    "region": "south",
    "link": "/people/%E9%8D%BE%E7%90%86%E5%92%8C",
    "lang": "zh-TW",
    "desc": "《原鄉人》作者，台灣文學之父，貧病交加仍堅持創作的文學鬥士",
    "city": "高雄"
  },
  {
    "title": "阿爆（阿仍仍）：把排灣族語送進金曲年度專輯的那個 future pop 歌手",
    "lat": 22.761681,
    "lng": 121.137834,
    "category": "people",
    "region": "east",
    "link": "/people/%E9%98%BF%E7%88%86",
    "lang": "zh-TW",
    "desc": "2020 年金曲 31 年度專輯頒給全排灣語電音《kinakaian 母親的舌頭》。阿爆（Aljenljeng Tjaluvie，1981 年臺東金峰）從 R&B 雙人組 Abao & Brandy 出道、當過十年護理師，2019 與 Dizparity 把族語做成 future pop，改寫「原住民音樂 = 保存」。",
    "city": "台東"
  },
  {
    "title": "陳樹菊",
    "lat": 22.749178,
    "lng": 121.148406,
    "category": "people",
    "region": "east",
    "link": "/people/%E9%99%B3%E6%A8%B9%E8%8F%8A",
    "lang": "zh-TW",
    "desc": "一個台東菜販，用五十年的菜錢捐了數千萬，卻說自己「就是一個賣菜的」",
    "city": "台東"
  },
  {
    "title": "陳水扁",
    "lat": 25.03309,
    "lng": 121.569963,
    "category": "people",
    "region": "north",
    "link": "/people/%E9%99%B3%E6%B0%B4%E6%89%81",
    "lang": "zh-TW",
    "desc": "台灣第十、十一任總統，2000年首次政黨輪替實現者，公投法與原住民族基本法的推動者",
    "city": "台北"
  },
  {
    "title": "陳澄波",
    "lat": 23.476823,
    "lng": 120.442029,
    "category": "people",
    "region": "south",
    "link": "/people/%E9%99%B3%E6%BE%84%E6%B3%A2",
    "lang": "zh-TW",
    "desc": "他以油畫征服了東京的帝展，卻在嘉義車站前被槍斃——而讓世人知道他的，往往是死亡，不是那些畫。",
    "city": "嘉義"
  },
  {
    "title": "陳菊",
    "lat": 22.630605,
    "lng": 120.307641,
    "category": "people",
    "region": "south",
    "link": "/people/%E9%99%B3%E8%8F%8A",
    "lang": "zh-TW",
    "desc": "從美麗島的死囚到南霸天「花媽」，她是台灣民主轉型最鮮明的見證者。",
    "city": "高雄"
  },
  {
    "title": "韓國瑜",
    "lat": 22.624424,
    "lng": 120.299497,
    "category": "people",
    "region": "south",
    "link": "/people/%E9%9F%93%E5%9C%8B%E7%91%9C",
    "lang": "zh-TW",
    "desc": "史上第一位被罷免的直轄市長，四年後當上立法院長。這是什麼樣的政治軌跡？",
    "city": "高雄"
  },
  {
    "title": "寧願燒盡，不願鏽壞：馬偕與他深愛的福爾摩沙",
    "lat": 25.168919,
    "lng": 121.438224,
    "category": "people",
    "region": "north",
    "link": "/people/%E9%A6%AC%E5%81%95",
    "lang": "zh-TW",
    "desc": "從拔牙兩萬顆到創辦女子學堂，加拿大宣教士馬偕如何成為「正港台灣人」，用三十年生命改寫北台灣的醫療、教育與科學探索史。",
    "city": "新北"
  },
  {
    "title": "馬英九",
    "lat": 25.038079,
    "lng": 121.560867,
    "category": "people",
    "region": "north",
    "link": "/people/%E9%A6%AC%E8%8B%B1%E4%B9%9D",
    "lang": "zh-TW",
    "desc": "中華民國第十二、十三任總統，兩岸破冰政策的推手，也是22K薪資停滯與太陽花學運的執政背景",
    "city": "台北"
  },
  {
    "title": "魏如萱：從自然捲主唱「娃娃」到兩座金曲歌后，只想被聽見的二十年",
    "lat": 23.991764,
    "lng": 121.607399,
    "category": "people",
    "region": "east",
    "link": "/people/%E9%AD%8F%E5%A6%82%E8%90%B1",
    "lang": "zh-TW",
    "desc": "2003 年自然捲主唱「娃娃」，2006 年聲帶受傷後用「Waa Wei」單飛，2020 與 2025 年兩度拿下金曲最佳國語女歌手。從〈彼個所在〉四語悼念盧凱彤、〈Ophelia〉童聲版的女性抵抗，到《珍珠刑》從疼痛長出的勇敢——她二十年走的是華語流行音樂最反直覺的路徑：讓聲音比臉更有名，讓作品比人格活得更久。",
    "city": "花蓮"
  },
  {
    "title": "王齊麟與李洋（麟洋配）",
    "lat": 25.032343,
    "lng": 121.572179,
    "category": "people",
    "region": "north",
    "link": "/people/%E9%BA%9F%E6%B4%8B%E9%85%8D",
    "lang": "zh-TW",
    "desc": "從國中同學到奧運金牌：「麟洋配」34分鐘內直落二擊敗中國，寫下台灣羽球史上第一面奧運金牌",
    "city": "台北"
  },
  {
    "title": "黃仁勳",
    "lat": 25.03292,
    "lng": 121.565811,
    "category": "people",
    "region": "north",
    "link": "/people/%E9%BB%83%E4%BB%81%E5%8B%B3",
    "lang": "zh-TW",
    "desc": "從肯塔基寄宿學校到五兆美元帝國——一個掃廁所的台南男孩如何押注十年後才到來的未來",
    "city": "台北"
  },
  {
    "title": "黃春明",
    "lat": 24.752501,
    "lng": 121.747901,
    "category": "people",
    "region": "north",
    "link": "/people/%E9%BB%83%E6%98%A5%E6%98%8E",
    "lang": "zh-TW",
    "desc": "《兒子的大玩偶》《看海的日子》作者，宜蘭鄉土文學代表作家",
    "city": "宜蘭"
  },
  {
    "title": "黃玉嬌",
    "lat": 24.989073,
    "lng": 121.299359,
    "category": "people",
    "region": "north",
    "link": "/people/%E9%BB%83%E7%8E%89%E5%AC%8C",
    "lang": "zh-TW",
    "desc": "1977 年中壢事件的關鍵時刻，她站在警局門口勸群眾不要衝動——這位 58 歲的留日藥師，後來當選四屆省議員、民進黨創黨元老，卻在歷史敘事中長期被忽略。",
    "city": "桃園"
  },
  {
    "title": "黃震南",
    "lat": 23.47337,
    "lng": 120.442119,
    "category": "people",
    "region": "south",
    "link": "/people/%E9%BB%83%E9%9C%87%E5%8D%97",
    "lang": "zh-TW",
    "desc": "黃震南是台灣文史工作者、藏書家與作家，以PTT暱稱Sizumaru起家，經營「活水來冊房」專頁分享台灣歷史與舊書文化。著有《台灣史上最有梗的台灣史》等書，被譽為藏書界的竹野內豐。他從嘉義六腳書香家庭出發，父子南北分工蒐集文獻，致力讓嚴肅台灣史變得有趣親民。",
    "city": "嘉義"
  },
  {
    "title": "齊柏林",
    "lat": 25.031885,
    "lng": 121.566045,
    "category": "people",
    "region": "north",
    "link": "/people/%E9%BD%8A%E6%9F%8F%E6%9E%97",
    "lang": "zh-TW",
    "desc": "一個公務員薪水養不起直升機的人，如何用抵押房子的錢拍出台灣紀錄片史上最成功的作品",
    "city": "台北"
  },
  {
    "title": "2026 鄭習會：國共領導人十年再會的十分鐘",
    "lat": 25.028562,
    "lng": 121.572006,
    "category": "society",
    "region": "north",
    "link": "/society/2026%E9%84%AD%E7%BF%92%E6%9C%83%E8%88%87%E5%9C%8B%E5%85%B1%E5%8D%81%E5%B9%B4%E5%86%8D%E6%9C%83",
    "lang": "zh-TW",
    "desc": "2026 年 4 月 10 日，鄭麗文在北京見習近平，成為十年來第一位會見中共總書記的中華民國主要政黨領袖。會談十分鐘，同時台灣海峽有 100 艘解放軍船艦。這場「和平之旅」究竟在旅什麼？",
    "city": "台北"
  },
  {
    "title": "一個教師的誕生：台灣師資培育制度的四十年改革與塌縮",
    "lat": 25.034615,
    "lng": 121.56671,
    "category": "society",
    "region": "north",
    "link": "/society/%E4%B8%80%E5%80%8B%E6%95%99%E5%B8%AB%E7%9A%84%E8%AA%95%E7%94%9F%EF%BC%9A%E5%8F%B0%E7%81%A3%E5%B8%AB%E8%B3%87%E5%9F%B9%E8%82%B2%E5%88%B6%E5%BA%A6",
    "lang": "zh-TW",
    "desc": "1994 年立法院通過《師資培育法》，把「師範體系一條龍」改成「開放多元師培」，當時被視為台灣教育史的進步里程碑。三十年後的數字很冷靜：原本 9 所教育大學被整併到只剩 3 所、109 學年全台師資培育機構招生不足額史上最高、112-113 年教師檢定通過率跌到 52%（近年新低）、近半師培生把師培課當備胎、42% 的人在拿到教師證前就放棄了。一個國家花了三十年改革師資制度，結果是：想當老師的人變少、能留下來的人被訓練得跟現場越來越遠。",
    "city": "台北"
  },
  {
    "title": "偏遠地區學校教育發展條例全解：國家花了 175 億，還是擋不住人口重力",
    "lat": 22.684041,
    "lng": 120.483429,
    "category": "society",
    "region": "south",
    "link": "/society/%E5%81%8F%E9%81%A0%E5%9C%B0%E5%8D%80%E5%AD%B8%E6%A0%A1%E6%95%99%E8%82%B2%E7%99%BC%E5%B1%95%E6%A2%9D%E4%BE%8B%E5%85%A8%E8%A7%A3",
    "lang": "zh-TW",
    "desc": "2016 年 11 月 21 日，立法院三讀通過《偏遠地區學校教育發展條例》全文 21 條。這部法律的存在本身是國家對自己制度失能的正式承認。八年過去，政府在偏鄉硬體投入累計 175 億元、18.6 億元改善師生宿舍。但 113 學年全國一口氣有 18 所國小停辦，是台灣教育史上最多的一年；屏東縣四年裁併七校；全國廢校率還在上升。條例救了法律，但擋不住人口重力。",
    "city": "屏東"
  },
  {
    "title": "動物園與展演動物倫理",
    "lat": 24.805732,
    "lng": 120.973335,
    "category": "society",
    "region": "north",
    "link": "/society/%E5%8B%95%E7%89%A9%E5%9C%92%E8%88%87%E5%B1%95%E6%BC%94%E5%8B%95%E7%89%A9%E5%80%AB%E7%90%86",
    "lang": "zh-TW",
    "desc": "從鐵籠裡的大象到 Xpark 的水母牆——台灣正在重新定義人與被展示動物的關係",
    "city": "新竹"
  },
  {
    "title": "台灣公共衛生與防疫體系",
    "lat": 25.034208,
    "lng": 121.567212,
    "category": "society",
    "region": "north",
    "link": "/society/%E5%8F%B0%E7%81%A3%E5%85%AC%E5%85%B1%E8%A1%9B%E7%94%9F%E8%88%87%E9%98%B2%E7%96%AB%E9%AB%94%E7%B3%BB",
    "lang": "zh-TW",
    "desc": "2003 年和平醫院封院死了 30 個人。十七年後 COVID-19 全球大爆發，台灣靠那場災難的教訓撐了 18 個月零社區感染。一場創傷如何變成一座島嶼的免疫記憶。",
    "city": "台北"
  },
  {
    "title": "台灣原住民族土地正義與傳統領域",
    "lat": 24.157416,
    "lng": 121.62736,
    "category": "society",
    "region": "east",
    "link": "/society/%E5%8F%B0%E7%81%A3%E5%8E%9F%E4%BD%8F%E6%B0%91%E6%97%8F%E5%9C%9F%E5%9C%B0%E6%AD%A3%E7%BE%A9%E8%88%87%E5%82%B3%E7%B5%B1%E9%A0%98%E5%9F%9F",
    "lang": "zh-TW",
    "desc": "探討台灣原住民族土地權利的歷史脈絡、法律發展、傳統領域劃設爭議與原住民族轉型正義委員會的工作成果",
    "city": "花蓮"
  },
  {
    "title": "台灣原住民族教育與語言復振的交界：小學護得住，中學接不住",
    "lat": 22.682253,
    "lng": 120.476642,
    "category": "society",
    "region": "south",
    "link": "/society/%E5%8F%B0%E7%81%A3%E5%8E%9F%E4%BD%8F%E6%B0%91%E6%97%8F%E6%95%99%E8%82%B2%E8%88%87%E8%AA%9E%E8%A8%80%E5%BE%A9%E6%8C%AF%E7%9A%84%E4%BA%A4%E7%95%8C",
    "lang": "zh-TW",
    "desc": "2012 年屏東泰武國小的排灣族老師查馬克·法拉屋樂用錄音筆從耆老口中採集古謠，率領孩子唱進金曲獎。2017 年《原住民族語言發展法》把族語升格為國家語言。2019 年《原住民族教育法》寫入「十年達標」的教師比例條文。國小階段的原住民族實驗學校從 25 所增加到 38 所。但上了國中之後，整個系統塌陷：全台灣原住民族實驗中學只有 6 所，大專原住民學生粗在學率 56.3%，比一般生少了 35.3 個百分點。查馬克 2021 年病逝，享年 42 歲。小學護得住，中學接不住。斷層還在那裡。",
    "city": "屏東"
  },
  {
    "title": "台灣同婚與性別平權",
    "lat": 25.02899,
    "lng": 121.568688,
    "category": "society",
    "region": "north",
    "link": "/society/%E5%8F%B0%E7%81%A3%E5%90%8C%E5%A9%9A%E8%88%87%E6%80%A7%E5%88%A5%E5%B9%B3%E6%AC%8A",
    "lang": "zh-TW",
    "desc": "從戒嚴期的監獄囚犯到亞洲第一部同婚法，一個男人的30年奮鬥如何改寫島嶼的愛情定義",
    "city": "台北"
  },
  {
    "title": "台灣國防與軍事現代化",
    "lat": 25.034257,
    "lng": 121.559466,
    "category": "society",
    "region": "north",
    "link": "/society/%E5%8F%B0%E7%81%A3%E5%9C%8B%E9%98%B2%E8%88%87%E8%BB%8D%E4%BA%8B%E7%8F%BE%E4%BB%A3%E5%8C%96",
    "lang": "zh-TW",
    "desc": "2025 年 10 月，賴清德在湖口主持 M1A2T 戰車營成軍。同一個月，前參謀總長李喜明苦笑著說：「如果戰車都可以是不對稱武器，還有什麼不是不對稱武器。」這是一座島嶼在兩種國防邏輯之間拉扯的故事。",
    "city": "台北"
  },
  {
    "title": "台灣的斜槓世代——一人多職的生存與選擇",
    "lat": 25.029637,
    "lng": 121.570744,
    "category": "society",
    "region": "north",
    "link": "/society/%E5%8F%B0%E7%81%A3%E6%96%9C%E6%A7%93%E4%B8%96%E4%BB%A3",
    "lang": "zh-TW",
    "desc": "當碩士學歷只換得來一間台北套房的租金，斜槓不是選擇，是活下去的數學題",
    "city": "台北"
  },
  {
    "title": "鏟子超人與島嶼共時性：台灣災難志工文化如何形塑國族認同",
    "lat": 23.996729,
    "lng": 121.607089,
    "category": "society",
    "region": "east",
    "link": "/society/%E5%8F%B0%E7%81%A3%E7%81%BD%E9%9B%A3%E5%BF%97%E5%B7%A5%E6%96%87%E5%8C%96",
    "lang": "zh-TW",
    "desc": "以2025年花蓮光復鄉水災為鏡，探討台灣獨特的災難志工動員模式如何透過社群媒體重新定義島嶼共同體意識，從921地震到花蓮水災的社會韌性演化軌跡。",
    "city": "花蓮"
  },
  {
    "title": "台灣環境正義與鄰避爭議",
    "lat": 22.035203,
    "lng": 121.546961,
    "category": "society",
    "region": "east",
    "link": "/society/%E5%8F%B0%E7%81%A3%E7%92%B0%E5%A2%83%E6%AD%A3%E7%BE%A9%E8%88%87%E9%84%B0%E9%81%BF%E7%88%AD%E8%AD%B0",
    "lang": "zh-TW",
    "desc": "探討台灣環境負擔分配不均現象，從焚化爐、核廢料到石化業的鄰避衝突，分析環境不平等問題與社會公義議題",
    "city": "台東"
  },
  {
    "title": "台灣省籍矛盾",
    "lat": 25.03923,
    "lng": 121.559602,
    "category": "society",
    "region": "north",
    "link": "/society/%E5%8F%B0%E7%81%A3%E7%9C%81%E7%B1%8D%E7%9F%9B%E7%9B%BE",
    "lang": "zh-TW",
    "desc": "省籍矛盾不是兩群人互相討厭的故事，而是一場關於誰有資格定義「台灣人」的權力爭奪——它在選票上死而復生，在眷村拆遷裡悄悄蒸發，卻從未真正終結。",
    "city": "台北"
  },
  {
    "title": "台灣社區與里文化",
    "lat": 25.03622,
    "lng": 121.572236,
    "category": "society",
    "region": "north",
    "link": "/society/%E5%8F%B0%E7%81%A3%E7%A4%BE%E5%8D%80%E8%88%87%E9%87%8C%E6%96%87%E5%8C%96",
    "lang": "zh-TW",
    "desc": "從最基層的民主實踐到社區營造的社會創新",
    "city": "台北"
  },
  {
    "title": "台灣長期照顧制度發展",
    "lat": 25.028485,
    "lng": 121.568564,
    "category": "society",
    "region": "north",
    "link": "/society/%E5%8F%B0%E7%81%A3%E9%95%B7%E6%9C%9F%E7%85%A7%E9%A1%A7%E5%88%B6%E5%BA%A6%E7%99%BC%E5%B1%95",
    "lang": "zh-TW",
    "desc": "全世界最先進的長照制度，卻同時存在著最大的隱形照顧體系",
    "city": "台北"
  },
  {
    "title": "地震：與地牛共舞的島嶼記憶",
    "lat": 23.989162,
    "lng": 121.598186,
    "category": "society",
    "region": "east",
    "link": "/society/%E5%9C%B0%E9%9C%87",
    "lang": "zh-TW",
    "desc": "為什麼外國人嚇得要命，台灣人卻只關心泡麵糊了沒？從清領「地生毛」到 921 的 102 秒，看這座島嶼如何把災難內化成日常。",
    "city": "花蓮"
  },
  {
    "title": "環保與永續發展",
    "lat": 24.054798,
    "lng": 120.44323,
    "category": "society",
    "region": "central",
    "link": "/society/%E7%92%B0%E4%BF%9D%E8%88%87%E6%B0%B8%E7%BA%8C%E7%99%BC%E5%B1%95",
    "lang": "zh-TW",
    "desc": "從煙囪之島到淨零台灣：40年環保運動的覺醒之路",
    "city": "彰化"
  },
  {
    "title": "社會住宅與居住正義",
    "lat": 25.040333,
    "lng": 121.55948,
    "category": "society",
    "region": "north",
    "link": "/society/%E7%A4%BE%E6%9C%83%E4%BD%8F%E5%AE%85%E8%88%87%E5%B1%85%E4%BD%8F%E6%AD%A3%E7%BE%A9",
    "lang": "zh-TW",
    "desc": "台灣如何透過社會住宅政策實現居住正義，讓每個人都有安身立命的地方",
    "city": "台北"
  },
  {
    "title": "野百合學運",
    "lat": 25.031273,
    "lng": 121.52818,
    "category": "society",
    "region": "north",
    "link": "/society/%E9%87%8E%E7%99%BE%E5%90%88%E5%AD%B8%E9%81%8B",
    "lang": "zh-TW",
    "desc": "一群大學生在中正紀念堂靜坐七天，最後逼得一個拖了四十多年的政治體制開始鬆動。野百合學運真正改變的，不只是國是會議，而是台灣人第一次清楚看見：學生可以直接改寫憲政改革的時間表。 ",
    "city": "台北"
  },
  {
    "title": "半導體產業",
    "lat": 24.784,
    "lng": 120.993,
    "category": "technology",
    "region": "north",
    "link": "/technology/%E5%8D%8A%E5%B0%8E%E9%AB%94%E7%94%A2%E6%A5%AD",
    "lang": "zh-TW",
    "desc": "從張忠謀的歷史賭注到2奈米時代：台積電如何讓台灣成為全球科技命脈",
    "city": "新竹"
  },
  {
    "title": "台灣的 AI 日常——當人工智慧走進街頭巷尾",
    "lat": 23.47917,
    "lng": 120.449208,
    "category": "technology",
    "region": "south",
    "link": "/technology/%E5%8F%B0%E7%81%A3AI%E6%97%A5%E5%B8%B8",
    "lang": "zh-TW",
    "desc": "台灣人每天跟 AI 互動十幾次，但多數人不知道自己在跟 AI 說話",
    "city": "嘉義"
  },
  {
    "title": "台灣人工智慧發展與未來策略",
    "lat": 22.991391,
    "lng": 120.220205,
    "category": "technology",
    "region": "south",
    "link": "/technology/%E5%8F%B0%E7%81%A3%E4%BA%BA%E5%B7%A5%E6%99%BA%E6%85%A7%E7%99%BC%E5%B1%95%E8%88%87%E6%9C%AA%E4%BE%86%E7%AD%96%E7%95%A5",
    "lang": "zh-TW",
    "desc": "全世界訓練 AI 的晶片九成來自台灣，但這座島的 AI 野心不只是當代工廠——從 PTT 創辦人建立的 AI 實驗室，到政府押注的繁體中文大型語言模型 TAIDE，台灣正在硬體霸權之上長出自己的 AI 靈魂。",
    "city": "台南"
  },
  {
    "title": "當地震來襲時，誰在值班？台灣災難醫療體系的制度密碼",
    "lat": 23.99817,
    "lng": 121.598801,
    "category": "technology",
    "region": "east",
    "link": "/technology/%E5%8F%B0%E7%81%A3%E7%81%BD%E9%9B%A3%E9%86%AB%E7%99%82%E9%AB%94%E7%B3%BB",
    "lang": "zh-TW",
    "desc": "從921地震到花蓮強震，台灣如何建構出以急診科為核心的災難醫療網？制度設計的精妙之處不在設備，而在「誰值班」的巧思。",
    "city": "花蓮"
  },
  {
    "title": "科技園區發展",
    "lat": 24.8082,
    "lng": 120.973939,
    "category": "technology",
    "region": "north",
    "link": "/technology/%E7%A7%91%E6%8A%80%E5%9C%92%E5%8D%80%E7%99%BC%E5%B1%95",
    "lang": "zh-TW",
    "desc": "從一座稻田上的賭注到年產值五兆的矽盾——台灣三大科學園區如何用四十五年改寫全球科技地圖",
    "city": "新竹"
  },
  {
    "title": "Taiwan’s Five Major Landforms: From Mountain Spines to Fertile Plains",
    "lat": 23.477731,
    "lng": 120.95378,
    "category": "geography",
    "region": "central",
    "link": "/en/geography/taiwan-five-major-landforms-and-geographic-structure",
    "lang": "en",
    "desc": "A cultural-geographic tour of Taiwan’s five landform types and five mountain ranges, explaining how an asymmetric island shaped nature, settlement, and identity.",
    "city": "南投"
  },
  {
    "title": "La culture populaire des Penghu",
    "lat": 23.570436,
    "lng": 119.580137,
    "category": "fr",
    "region": "islands",
    "link": "/fr/penghu-folk-culture",
    "lang": "zh-TW",
    "desc": "Chaque année, à la pleine lune du premier mois lunaire, plus de deux cents temples des Penghu procèdent simultanément au rituel de la tortue de riz, certaines pesant jusqu'à vingt-trois tonnes. Sur cet archipel balayé depuis quatre siècles par la mousson du nord-est, les insulaires implorent le retour des pêcheurs partis en mer, capturent le poisson dans des enclos de pierres et chantent leur solitude hivernale en improvisant des couplets.",
    "city": "澎湖"
  },
  {
    "title": "Sur une île en mouvement, ils ont bâti une tour qui touche le ciel",
    "lat": 25.025876,
    "lng": 121.564886,
    "category": "fr",
    "region": "north",
    "link": "/fr/taipei-101",
    "lang": "zh-TW",
    "desc": "À seulement 200 mètres d'une faille active, les Taïwanais ont relevé le défi de construire le plus haut gratte-ciel du monde sur un sol des plus instables — avant qu'un fou l'escalade à mains nues en 91 minutes.",
    "city": "台北"
  },
  {
    "title": "L'histoire de l'exploitation forestière à Taïwan : du pillage des ressources à la protection du territoire national",
    "lat": 25.035743,
    "lng": 121.569425,
    "category": "fr",
    "region": "north",
    "link": "/fr/forest-development-history",
    "lang": "zh-TW",
    "desc": "De l'époque de la domination Qing et de ses volutes de camphre, en passant par le grondement des rails sous l'occupation japonaise, jusqu'à la grande ère de déforestation qui a ébranlé les montagnes après la guerre. Cet article retrace la logique géopolitique mondiale qui sous-tendait les politiques forestières de Taïwan, et s'appuie sur des données chiffrées pour éclaircir la vérité sur un siècle de sylviculture.",
    "city": "台北"
  },
  {
    "title": "創設者 — 呉哲宇（ウー・チョーユー）Che-Yu Wu",
    "lat": 25.026627,
    "lng": 121.565148,
    "category": "about",
    "region": "north",
    "link": "/ja/about/founder",
    "lang": "ja",
    "desc": "コードから詩へ：台湾人アーティストが世界へと踏み出した軌跡",
    "city": "台北"
  },
  {
    "title": "台湾公式ウェブサイトリソース集",
    "lat": 25.033213,
    "lng": 121.560208,
    "category": "about",
    "region": "north",
    "link": "/ja/about/official-resources",
    "lang": "ja",
    "desc": "台湾の政府機関・文化教育・観光・科技・メディアなど各分野の公式・権威あるウェブサイトを網羅したインデックス。台湾を知るための一次情報源ガイド。",
    "city": "台北"
  },
  {
    "title": "台湾の公式ウェブサイトリソース：25のサイトからデジタル政府先進国へ、30年の軌跡",
    "lat": 25.029479,
    "lng": 121.561332,
    "category": "about",
    "region": "north",
    "link": "/ja/about/taiwan-digital-government-30-years",
    "lang": "ja",
    "desc": "1996年、台湾はインターネット世界博覧会への参加のために25の政府機関が初めて公式ウェブサイトを開設した。それから30年——この島はオンライン納税申告からシングルポータル、オープンデータからAI学習コーパスまで、世界が注目するデジタル政府の模範となった。台湾がいかにして公式サイトでデジタル変革の伝説を刻んだか、その全貌を探る。",
    "city": "台北"
  },
  {
    "title": "台湾の現代アート",
    "lat": 25.034554,
    "lng": 121.572659,
    "category": "art",
    "region": "north",
    "link": "/ja/art/contemporary-art",
    "lang": "ja",
    "desc": "北美館からヴェネツィア・ビエンナーレ台湾館まで——台湾の現代アートが世界舞台で占める独自の位置",
    "city": "台北"
  },
  {
    "title": "台湾当代彫刻の発展",
    "lat": 25.036151,
    "lng": 121.559412,
    "category": "art",
    "region": "north",
    "link": "/ja/art/contemporary-sculpture",
    "lang": "ja",
    "desc": "楊英風、朱銘から新世代まで――台湾彫刻芸術の変遷と創作精神をたどる",
    "city": "台北"
  },
  {
    "title": "台湾のキュレーターと芸術文化の構築",
    "lat": 25.025044,
    "lng": 121.559477,
    "category": "art",
    "region": "north",
    "link": "/ja/art/curators-and-cultural-construction",
    "lang": "ja",
    "desc": "1990年代初頭の制度的萌芽から現在の国際プラットフォームまで、台湾のキュレーターはグローバル化の波の中でいかにして本土の芸術言説を構築し、国際ビエンナーレのシステムの中で独自の声を見つけてきたのか。文化的アイデンティティと専門的制度化をめぐる30年の変遷史。",
    "city": "台北"
  },
  {
    "title": "台湾原住民族（先住民族）の現代アート",
    "lat": 25.029734,
    "lng": 121.565256,
    "category": "art",
    "region": "north",
    "link": "/ja/art/indigenous-contemporary-art",
    "lang": "ja",
    "desc": "伝統工芸から現代創作まで——台湾の原住民族アーティストたちがグローバルなアートシーンでいかに存在感を示し、先住民族のアイデンティティと現代アートの対話を再定義しているかを探る",
    "city": "台北"
  },
  {
    "title": "金馬賓館現代美術館 — 別れの駅から芸術の楽園へ",
    "lat": 22.634156,
    "lng": 120.294586,
    "category": "art",
    "region": "south",
    "link": "/ja/art/kmoca",
    "lang": "ja",
    "desc": "冷戦時代の軍事施設として兵士たちの旅立ちを見届け、20年の眠りを経て父娘に目覚めさせられた建物は、今やロンリープラネットが選ぶ「高雄ナンバーワン美術館」となっています。",
    "city": "高雄"
  },
  {
    "title": "台湾現代詩：意図せぬ土着化の予言",
    "lat": 24.083024,
    "lng": 120.536484,
    "category": "art",
    "region": "central",
    "link": "/ja/art/modern-poetry",
    "lang": "ja",
    "desc": "三つの書斎から始まった現代主義の実験が、いかにして最も土着的な詩歌革命を生み出したか",
    "city": "彰化"
  },
  {
    "title": "台湾ニューメディアアート",
    "lat": 25.026725,
    "lng": 121.564485,
    "category": "art",
    "region": "north",
    "link": "/ja/art/new-media-art",
    "lang": "ja",
    "desc": "1980年代の映像先駆者からヴェネツィアVR大賞まで、16人の主要アーティストと40年にわたるデジタルアート革命の全貌。台湾がいかにコードで詩を書き、国際アートシーンに自らの名を刻んできたか。",
    "city": "台北"
  },
  {
    "title": "台湾の建築——文化が交差する立体詩",
    "lat": 25.026736,
    "lng": 121.563918,
    "category": "art",
    "region": "north",
    "link": "/ja/art/taiwan-architecture",
    "lang": "ja",
    "desc": "石板屋から超高層ビルまで：一つの島が刻んだ建築の時間旅行",
    "city": "台北"
  },
  {
    "title": "台湾の伝統芸術",
    "lat": 22.999784,
    "lng": 120.167125,
    "category": "art",
    "region": "south",
    "link": "/ja/art/traditional-arts",
    "lang": "ja",
    "desc": "21世紀最大の文化産業の奇跡：年間売上高1,000億台湾元規模を誇る霹靂布袋戲帝国は、いかにして農村の神事演芸から世界を席巻する文化ソフトパワーへと変貌したのか。",
    "city": "台南"
  },
  {
    "title": "台湾水彩画の百年変遷",
    "lat": 24.802525,
    "lng": 120.963215,
    "category": "art",
    "region": "north",
    "link": "/ja/art/watercolor-painting-history",
    "lang": "ja",
    "desc": "日本統治時代の石川欽一郎による啓蒙から、現代の簡忠威が国際的な名声を得るまで、台湾の水彩画は百年の歴史を歩み、アジアで最も活発な水彩創作の中心地となっています。",
    "city": "新竹"
  },
  {
    "title": "台湾の葬送文化と生死観",
    "lat": 25.02891,
    "lng": 121.565477,
    "category": "culture",
    "region": "north",
    "link": "/ja/culture/funeral-culture",
    "lang": "ja",
    "desc": "孝女白琴の泣き声から詠愛園の樹木葬まで——台湾人は50年をかけて土葬から火葬へ移行し、さらに10年で納骨堂から一本の木の下へと辿り着いた。",
    "city": "台北"
  },
  {
    "title": "台湾のフューリー（Furry）ファンダム文化",
    "lat": 22.633274,
    "lng": 120.29337,
    "category": "culture",
    "region": "south",
    "link": "/ja/culture/furry-fandom",
    "lang": "ja",
    "desc": "2015年、台湾初のフューリー大会には約50人しか集まらず、ファースーツ制作者は10人にも満たなかった。それから10年後、Infurnity（獸無限）は単回イベントで3,251人を動員し、689体のファースーツが同台に並び、チャリティ募金は100万元近くに達した。台湾のフューリーコミュニティは、ダイヤルアップ接続時代のBBS掲示板での議論から、アジア屈指の組織力を誇る擬人化動物愛好者コミュニティへと成長を遂げた。",
    "city": "高雄"
  },
  {
    "title": "関聖帝君：敗れた将軍はいかにして台湾の万能神となったか",
    "lat": 25.027446,
    "lng": 121.572968,
    "category": "culture",
    "region": "north",
    "link": "/ja/culture/guan-sheng-di-jun-belief",
    "lang": "ja",
    "desc": "三国時代の武将・関羽は戦に敗れ斬首されたにもかかわらず、台湾では世界に類を見ない「恩主公（エンジュコン）」信仰へと進化した。そして全台湾でもっとも賑わう関帝廟は、線香を一本も焚かせない。",
    "city": "台北"
  },
  {
    "title": "客家文化と言語——三百年にわたる生存実験",
    "lat": 22.678013,
    "lng": 120.488369,
    "category": "culture",
    "region": "south",
    "link": "/ja/culture/hakka-culture",
    "lang": "ja",
    "desc": "1988年、約1万人の客家（ハッカ）人が「母語を返せ」と台北の街頭に立った。それから38年、客家語は国家言語になったが、話せる人は逆に減り続けている",
    "city": "屏東"
  },
  {
    "title": "台湾の語呂合わせ禁忌文化：なぜ「4」は社会全体で避けられるのか？",
    "lat": 24.988172,
    "lng": 121.297863,
    "category": "culture",
    "region": "north",
    "link": "/ja/culture/homophone-taboos",
    "lang": "ja",
    "desc": "病院に4階がないことから車のナンバープレート「8888」が高値で競り落とされるまで、台湾人の語呂合わせへの敏感さは世界屈指といえます",
    "city": "桃園"
  },
  {
    "title": "台湾の線香文化と香腳（こうきゃく）の故郷",
    "lat": 24.055218,
    "lng": 120.433423,
    "category": "culture",
    "region": "central",
    "link": "/ja/culture/incense-making-culture",
    "lang": "ja",
    "desc": "嘉義・雲霄コミュニティに受け継がれる百年の技から、島全体に広がる線香産業まで——信仰と匠の技、そして不屈の精神が宿る古の手仕事",
    "city": "彰化"
  },
  {
    "title": "台湾の藍染め――消えた「台湾ブルー」を土から蘇らせた人たち",
    "lat": 24.560109,
    "lng": 120.825279,
    "category": "culture",
    "region": "central",
    "link": "/ja/culture/indigo-dyeing",
    "lang": "ja",
    "desc": "かつて台湾第3位の輸出品として北部の山里を潤した藍靛（あいてん）。化学染料の台頭で半世紀以上姿を消した後、職人たちの手によってあの深い「台湾ブルー」が日常に戻ってきた。",
    "city": "苗栗"
  },
  {
    "title": "筊杯占い：50%の確率の向こうに、神様の声を聞く",
    "lat": 23.482536,
    "lng": 120.443107,
    "category": "culture",
    "region": "south",
    "link": "/ja/culture/jiaobei-divination",
    "lang": "ja",
    "desc": "嘉義の竹頭筊職人・黃奕薰のこだわりから、屏東・慈天宮で20聖筊で300万元という伝説まで——台湾の人々と神様をつなぐ、確率と温もりの物語。",
    "city": "嘉義"
  },
  {
    "title": "台湾の老街文化と商業街区",
    "lat": 25.106596,
    "lng": 121.845283,
    "category": "culture",
    "region": "north",
    "link": "/ja/culture/old-street-culture",
    "lang": "ja",
    "desc": "清代の港町の賑わいから日本統治時代のバロック様式の洋館まで、台湾の老街はレンガと瓦で綴られた庶民の歴史書です",
    "city": "新北"
  },
  {
    "title": "澎湖の民俗文化",
    "lat": 23.577399,
    "lng": 119.581391,
    "category": "culture",
    "region": "islands",
    "link": "/ja/culture/penghu-folk-culture",
    "lang": "ja",
    "desc": "毎年正月十五日、澎湖の200以上の廟が一斉にポエを投げ、4万7千斤の米亀が供え台に積み上げられる。400年にわたって北東の季風に吹かれてきたこの島々では、「亀乞い」によって海に出た人の帰りを願い、石滬で退潮の魚を捕らえ、褒歌の掛け合いで冬の孤独を越えてきた。",
    "city": "澎湖"
  },
  {
    "title": "人間雑誌——台湾報道文学の原点",
    "lat": 24.998561,
    "lng": 121.30631,
    "category": "culture",
    "region": "north",
    "link": "/ja/culture/ren-jian-magazine",
    "lang": "ja",
    "desc": "47号、4年間、写真と文章で起こした静かな革命。台湾報道文学の出発点となった雑誌の記録",
    "city": "桃園"
  },
  {
    "title": "台湾のストリートアートとグラフィティ文化",
    "lat": 25.037102,
    "lng": 121.568443,
    "category": "culture",
    "region": "north",
    "link": "/ja/culture/street-art-and-graffiti",
    "lang": "ja",
    "desc": "地下グラフィティから公認の壁画へ——都市の壁面が台湾アーティストたちの表現舞台へと変わっていった軌跡",
    "city": "台北"
  },
  {
    "title": "台湾原住民族16族文化地図",
    "lat": 22.030448,
    "lng": 121.544632,
    "category": "culture",
    "region": "east",
    "link": "/ja/culture/taiwan-indigenous-16-peoples-cultural-map",
    "lang": "ja",
    "desc": "「16」という数字は自然に生まれたものではなく、交渉の積み重ねによって形づくられた結果です。人口21万人のアミ族から441人のカナカナブ族まで、台湾原住民族の文化の厚みは、どんな公式名簿よりもはるかに豊かです。",
    "city": "台東"
  },
  {
    "title": "台湾感性：韓国人の目に映る台湾式美学",
    "lat": 25.059785,
    "lng": 121.517171,
    "category": "culture",
    "region": "north",
    "link": "/ja/culture/taiwanese-sensibility",
    "lang": "ja",
    "desc": "高雄出身の二人が10年かけて2000種類の鉄格子花を記録し、韓国人が5年かけてそれを文化現象へと昇華させた——「대만감성」はいかにして台湾の日常風景をアジア最も魅力的な美学的シンボルへと変えたのか",
    "city": "台北"
  },
  {
    "title": "台湾の茶文化と生活美学",
    "lat": 23.515295,
    "lng": 120.706158,
    "category": "culture",
    "region": "south",
    "link": "/ja/culture/tea-ceremony-aesthetics",
    "lang": "ja",
    "desc": "虫に噛まれて生まれた蜜の香り、日本式の古民家で育まれた民主運動、世界市場を席巻した一杯のタピオカミルクティー——台湾の茶文化が植民地の遺産から独自の生活美学へと昇華するまで",
    "city": "嘉義"
  },
  {
    "title": "黄金時代の余韻：台湾茶文化の変遷と職人技",
    "lat": 23.515804,
    "lng": 120.703361,
    "category": "culture",
    "region": "south",
    "link": "/ja/culture/tea-culture",
    "lang": "ja",
    "desc": "1930年代に列強が生産制限協定を締結した際、台湾は除外された。その隙に台湾紅茶は329万kgから580万kgへと急増した。90年後、同じ島では30分ごとにタピオカドリンクショップが新規開業している。",
    "city": "嘉義"
  },
  {
    "title": "エイサー（Acer）— PC産業を変革した台湾発のグローバルブランド",
    "lat": 24.99081,
    "lng": 121.29949,
    "category": "economy",
    "region": "north",
    "link": "/ja/economy/acer",
    "lang": "ja",
    "desc": "桃園発のパソコンパイオニアが「マルチブランド・マルチチャネル」モデルを確立し、世界のPC産業に革命をもたらした軌跡",
    "city": "桃園"
  },
  {
    "title": "台湾企業：日月光半導体（ASEグループ）",
    "lat": 22.622595,
    "lng": 120.308764,
    "category": "economy",
    "region": "south",
    "link": "/ja/economy/ase-group",
    "lang": "ja",
    "desc": "世界最大の半導体パッケージング・テスト企業——建設会社の経営者はなぜ半導体業界に転じたのか？",
    "city": "高雄"
  },
  {
    "title": "台湾企業：長春石化グループ",
    "lat": 22.99939,
    "lng": 120.224103,
    "category": "economy",
    "region": "south",
    "link": "/ja/economy/chang-chun-group",
    "lang": "ja",
    "desc": "1949年に台南の小さな工場として創業し、世界的な化学品メーカーへと成長した「上場せず、借金せず」の隠れたチャンピオン企業の物語",
    "city": "台南"
  },
  {
    "title": "奇美実業：許文龍のアクリル王国と博物館の夢",
    "lat": 22.928993,
    "lng": 120.226719,
    "category": "economy",
    "region": "south",
    "link": "/ja/economy/chi-mei-corporation",
    "lang": "ja",
    "desc": "1960年に台南・仁徳の小さな工場からスタートし、許文龍は一生をかけてアジア最大のABS素材王国を築き上げました。さらに奇美博物館を設立して社会に還元し、ビジネスの成功と人文的精神は両立できることを証明した企業の物語です。",
    "city": "台南"
  },
  {
    "title": "中国鋼鉄公司（中鋼）：「鉄頭大臣」と十大建設が生んだ鉄鋼の伝説",
    "lat": 22.628695,
    "lng": 120.294605,
    "category": "economy",
    "region": "south",
    "link": "/ja/economy/china-steel",
    "lang": "ja",
    "desc": "趙耀東による欧米との巧みな技術交渉から、高雄・小港に立ちのぼった最初の白煙まで——中鋼は50年をかけて台湾重工業の骨格を築き上げた。十大建設の中でも最も成功したプロジェクトとして、その名を刻んでいます。",
    "city": "高雄"
  },
  {
    "title": "台湾企業：E.SUN金融控股（玉山金控）",
    "lat": 23.471259,
    "lng": 120.964854,
    "category": "economy",
    "region": "central",
    "link": "/ja/economy/e-sun-financial",
    "lang": "ja",
    "desc": "クレジットカード専業銀行からデジタル金融のパイオニアへ——43歳で史上最年少の金融持株会社社長が切り開いた革新の軌跡",
    "city": "南投"
  },
  {
    "title": "遠東グループ：上海の紡績工場から台湾最大の多角化経営帝国へ",
    "lat": 25.018464,
    "lng": 121.4626,
    "category": "economy",
    "region": "north",
    "link": "/ja/economy/far-eastern-group",
    "lang": "ja",
    "desc": "87年前、上海に設立された小さな紡績工場が、10大産業にまたがり総資産3兆円規模の台湾ビジネス帝国へと発展した経緯。遠東グループの歴史は、栄光から政治リスクまでを包含する台湾ビジネスの縮図です。",
    "city": "新北"
  },
  {
    "title": "台湾企業：ジャイアント・マニュファクチャリング",
    "lat": 25.035562,
    "lng": 121.56889,
    "category": "economy",
    "region": "north",
    "link": "/ja/economy/giant-manufacturing",
    "lang": "ja",
    "desc": "アメリカ大手に捨てられたOEM工場から、世界の自転車技術標準を制定する見えない帝国へ",
    "city": "台北"
  },
  {
    "title": "台湾の中小企業と隠れたチャンピオン：171万社の「無名企業」が支える経済の奇跡",
    "lat": 24.076589,
    "lng": 120.534133,
    "category": "economy",
    "region": "central",
    "link": "/ja/economy/sme-and-hidden-champions",
    "lang": "ja",
    "desc": "台湾経済の真の担い手は、半導体の巨人ではなく、全就業者の79%を雇用する171万社の中小企業です。1960年代の町工場から始まり、今や世界のニッチ市場を制する精密製造王国への60年の歩みを解説します。",
    "city": "彰化"
  },
  {
    "title": "台湾セメント（台泥）：台湾初の上場企業が挑む緑の転換",
    "lat": 22.989972,
    "lng": 120.158206,
    "category": "economy",
    "region": "south",
    "link": "/ja/economy/taiwan-cement",
    "lang": "ja",
    "desc": "1962年に台湾証券取引所の第一号上場銘柄となり、証券コード1101は台湾株式市場の原点として語り継がれています。辜家三代76年の経営を経て、台湾セメントはいまカーボンニュートラル時代に向けたグリーン企業への転換を進めています",
    "city": "台南"
  },
  {
    "title": "台湾の工作機械産業",
    "lat": 24.153217,
    "lng": 120.675687,
    "category": "economy",
    "region": "central",
    "link": "/ja/economy/taiwan-machine-tool-industry",
    "lang": "ja",
    "desc": "大肚山の「黄金の縦谷」から TMTS 2026 まで。台湾の工作機械産業のレジリエンス、崩壊、再生、そしてなぜ 2024 年に世界第 5 位から第 7 位へ後退したのかという構造的不安をたどる。",
    "city": "台中"
  },
  {
    "title": "台湾企業：TSMC（台湾積体電路製造）",
    "lat": 24.803451,
    "lng": 120.968199,
    "category": "economy",
    "region": "north",
    "link": "/ja/economy/tsmc-taiwan-semiconductor",
    "lang": "ja",
    "desc": "56歳の男が1987年に「世界誰も試みたことのない」会社を創業し、それが地球上で最も重要な工場になるまで",
    "city": "新竹"
  },
  {
    "title": "beef-noodle-soup",
    "lat": 25.039053,
    "lng": 121.570212,
    "category": "food",
    "region": "north",
    "link": "/ja/food/beef-noodle-soup",
    "lang": "ja",
    "desc": "探索台灣的文化與故事",
    "city": "台北"
  },
  {
    "title": "タピオカミルクティー",
    "lat": 24.14756,
    "lng": 120.668763,
    "category": "food",
    "region": "central",
    "link": "/ja/food/bubble-tea",
    "lang": "ja",
    "desc": "1987年、台中の社員会議でのひとつの偶然が、一杯の飲み物を世界へ届けた。タピオカミルクティーの発祥をめぐる論争、文化的な意味、そして500kcalをめぐる健康議論。",
    "city": "台中"
  },
  {
    "title": "客家の食文化",
    "lat": 24.802759,
    "lng": 120.975594,
    "category": "food",
    "region": "north",
    "link": "/ja/food/hakka-food-culture",
    "lang": "ja",
    "desc": "客家の食文化は、擂茶の香ばしい深みから野姜花粽の山の気配まで、倹約を重んじ、土地の恵みを生かしてきた暮らしの知恵を映し出しています。",
    "city": "新竹"
  },
  {
    "title": "台湾の夜市文化",
    "lat": 25.084597,
    "lng": 121.517801,
    "category": "food",
    "region": "north",
    "link": "/ja/food/night-market-culture",
    "lang": "ja",
    "desc": "公認夜市164ヶ所、台南では平均3.8万人にひとつ——廟の境内（廟口）から国際観光スポットへと歩んだ150年の歴史。",
    "city": "台北"
  },
  {
    "title": "台湾の塩酥鶏（ソルト＆ペッパーチキン）",
    "lat": 25.046437,
    "lng": 121.512423,
    "category": "food",
    "region": "north",
    "link": "/ja/food/salt-and-pepper-chicken",
    "lang": "ja",
    "desc": "1975年、レストラン経営に失敗した台南人の陳廷智が西門町で屋台を始め、秘伝のタレで揚げた鶏の唐揚げを売り出した。50年後、塩酥鶏は夜市（ナイトマーケット）がなくても屋台一台と油一鍋だけで生き続けられる台湾の数少ないストリートフードとなった——CNNが二度にわたって台湾必食リストに選んだが、最も本場の食べ方は、深夜に路上で紙袋を待つことである。",
    "city": "台北"
  },
  {
    "title": "台湾の辦桌（バンドー）文化",
    "lat": 22.634771,
    "lng": 120.301028,
    "category": "food",
    "region": "south",
    "link": "/ja/food/taiwan-banquet-culture",
    "lang": "ja",
    "desc": "数値には表れにくいこの産業は、なぜ台湾でもっとも粘り強い文化の担い手となったのか。康熙年間からパンデミックの冬までをたどる、辦桌の物語。",
    "city": "高雄"
  },
  {
    "title": "ちまき（粽）",
    "lat": 22.99746,
    "lng": 120.219394,
    "category": "food",
    "region": "south",
    "link": "/ja/food/zongzi",
    "lang": "ja",
    "desc": "台湾のちまきは一種類の食べ物ではない。閩南、客家（ハッカ）、外省、原住民族――四つの異なる島の記憶が重なり合い、一口噛むたびに「来た道」が問われる。",
    "city": "台南"
  },
  {
    "title": "台湾の地図をどう読むか――サツマイモから衛星まで四百年",
    "lat": 24.450989,
    "lng": 118.378147,
    "category": "geography",
    "region": "islands",
    "link": "/ja/geography/how-to-read-taiwan-map",
    "lang": "ja",
    "desc": "1554年、ポルトガルの地図師が羊皮紙8枚に「I. Fremosa」と記した島を描いた。彼はその島を踏んだことがなかった。四百七十年後、Google Mapsに映る台湾の姿は、あなたがどの国にいるかによって変わる——これは技術の問題ではなく、政治の問題だ。",
    "city": "金門"
  },
  {
    "title": "台湾の交通システム",
    "lat": 25.025888,
    "lng": 121.559109,
    "category": "geography",
    "region": "north",
    "link": "/ja/geography/taiwan-transportation-network",
    "lang": "ja",
    "desc": "台湾高速鉄道が南北を90分で結び、MRTが都市の血流をつくり、スクーターが路地を走り抜ける",
    "city": "台北"
  },
  {
    "title": "二・二八事件",
    "lat": 25.033091,
    "lng": 121.557781,
    "category": "history",
    "region": "north",
    "link": "/ja/history/228-incident",
    "lang": "ja",
    "desc": "一人の寡婦の闇タバコ売り台が、島全体に38年の沈黙を灯した火種となった——1947年、台湾の運命を変えた10日間と、78年後もなお癒えぬ傷",
    "city": "台北"
  },
  {
    "title": "阿里山：帝国の林場と高一生の山",
    "lat": 23.507553,
    "lng": 120.705954,
    "category": "history",
    "region": "south",
    "link": "/ja/history/alishan-imperial-forest",
    "lang": "ja",
    "desc": "1954年4月17日午後2時半、「阿里山のニーチェ」と呼ばれた鄒族の指導者・高一生が処刑された。阿里山はただの観光地ではなく、二つの帝国が次々と書き換えた記憶の山だ。",
    "city": "嘉義"
  },
  {
    "title": "中正紀念堂：威権の祭壇から民主の広場へ",
    "lat": 25.034641,
    "lng": 121.5158,
    "category": "history",
    "region": "north",
    "link": "/ja/history/cks-memorial-hall",
    "lang": "ja",
    "desc": "台北市中心に聳える89段の花崗岩階段。1980年に独裁者を神格化するために建てられた巨大建築が、1990年には民主化運動の聖地となり、2026年には少女たちがストリートダンスを練習する場所になった。台湾の魂が最も激しく揺れた場所の物語。",
    "city": "台北"
  },
  {
    "title": "台湾の民主的転換——威権体制が自ら掘った墓",
    "lat": 25.034626,
    "lng": 121.572147,
    "category": "history",
    "region": "north",
    "link": "/ja/history/democratic-transition",
    "lang": "ja",
    "desc": "弾圧するたびに、より多くの抵抗者が生まれた。二・二八からひまわり運動まで、一つの島がいかにして独裁体制に自らを葬る力を育てさせたか。",
    "city": "台北"
  },
  {
    "title": "民主化",
    "lat": 22.622338,
    "lng": 120.295911,
    "category": "history",
    "region": "south",
    "link": "/ja/history/democratization",
    "lang": "ja",
    "desc": "戒厳令38年の島が、流血革命なしに「最も自由な民主国家」へ転換するまで——台湾40年の政治実験",
    "city": "高雄"
  },
  {
    "title": "荷西明鄭時期：台湾が世界の貿易地図に刻まれた60年",
    "lat": 25.126778,
    "lng": 121.736374,
    "category": "history",
    "region": "north",
    "link": "/ja/history/dutch-spanish-koxinga-era",
    "lang": "ja",
    "desc": "1624年のオランダ・ゼーランジャ城から1683年の施琅の上陸まで——四つの政権が交代した60年が、台湾を海洋交易の結節点に変えた",
    "city": "基隆"
  },
  {
    "title": "台湾の選挙と政党政治：一票が変えた半世紀",
    "lat": 25.040303,
    "lng": 121.566741,
    "category": "history",
    "region": "north",
    "link": "/ja/history/elections-and-party-politics",
    "lang": "ja",
    "desc": "中壢事件の炎から817万票まで——台湾が投票を戒厳時代の装飾から全国民の儀式へと変えた半世紀の物語",
    "city": "台北"
  },
  {
    "title": "台湾森林開発史：資源収奪から国土保全への世紀的転換",
    "lat": 23.504546,
    "lng": 120.703682,
    "category": "history",
    "region": "south",
    "link": "/ja/history/forest-development-history",
    "lang": "ja",
    "desc": "清領時期の樟脳の煙から、日本統治時代の鉄路の響き、そして戦後に山々を揺るがした大伐木の時代まで。台湾の森林開発政策の背後にあるグローバルな地政学的論理を整理し、百年の林業の真実を明らかにする。",
    "city": "嘉義"
  },
  {
    "title": "美麗島事件：弾圧のつもりが最大の民主宣伝になった軍法大審",
    "lat": 22.633327,
    "lng": 120.306394,
    "category": "history",
    "region": "south",
    "link": "/ja/history/formosa-incident",
    "lang": "ja",
    "desc": "1979年12月10日、高雄で起きた衝突と逮捕、そして1980年の公開軍事裁判——反対運動を潰そうとした国民党政府の計算は、完全に裏目に出た",
    "city": "高雄"
  },
  {
    "title": "台湾先住民族の歴史と正名運動",
    "lat": 23.511977,
    "lng": 120.705996,
    "category": "history",
    "region": "south",
    "link": "/ja/history/indigenous-peoples-history-and-renaming",
    "lang": "ja",
    "desc": "1987年、19歳のツォウ族の青年が台北の刑場で処刑された。彼の死が、正名運動の最初の炎に火をつけた。",
    "city": "嘉義"
  },
  {
    "title": "日本統治時代",
    "lat": 22.623964,
    "lng": 120.304893,
    "category": "history",
    "region": "south",
    "link": "/ja/history/japanese-colonial-era",
    "lang": "ja",
    "desc": "1895年から1945年の50年間に及ぶ日本の台湾統治。全面的な近代化建設と制度化された管理を推進する一方、同化政策を実施し、台湾社会の発展に深い影響を与えた",
    "city": "高雄"
  },
  {
    "title": "台湾海洋貿易史",
    "lat": 22.994865,
    "lng": 120.158404,
    "category": "history",
    "region": "south",
    "link": "/ja/history/maritime-trade-history",
    "lang": "ja",
    "desc": "大航海時代の台湾——国際貿易センターから海賊王国の興亡まで",
    "city": "台南"
  },
  {
    "title": "台湾眷村の歴史：竹の垣根が囲んだ120万人の記憶",
    "lat": 24.990142,
    "lng": 121.29559,
    "category": "history",
    "region": "north",
    "link": "/ja/history/military-dependents-villages",
    "lang": "ja",
    "desc": "ミャンマーの孤立部隊から竹の垣根の王国まで——120万人の大移住が「家」の意味を問いなおした",
    "city": "桃園"
  },
  {
    "title": "清治時期：212年の統治が台湾社会の基盤を作った",
    "lat": 25.168709,
    "lng": 121.444022,
    "category": "history",
    "region": "north",
    "link": "/ja/history/qing-dynasty-era",
    "lang": "ja",
    "desc": "消極的な海禁政策から港の開放と近代化まで——1683年から1895年、台湾を変えた清朝統治の三つの段階",
    "city": "新北"
  },