[
  {
    "title": "台灣官方網站資源：從25個網站到數位政府強國的30年奇蹟",
    "lat": 25.033,
    "lng": 121.565,
    "category": "about",
    "region": "north",
    "link": "/about/%E5%8F%B0%E7%81%A3%E5%AE%98%E6%96%B9%E7%B6%B2%E7%AB%99%E8%B3%87%E6%BA%90%E9%87%8D%E5%AF%AB",
    "lang": "zh-TW",
    "desc": "1996年，台灣為了參加網際網路世界博覽會，25個政府機關建置了第一批官方網站。30年後的今天，這座島嶼成為全球數位政府的典範——從網路報稅到單一入口網站，從開放資料到AI語料庫，探索台灣如何用官方網站寫下數位轉型的傳奇。",
    "city": "台北"
  },
  {
    "title": "台灣傳統藝術",
    "lat": 22.996,
    "lng": 120.161,
    "category": "art",
    "region": "south",
    "link": "/art/%E5%8F%B0%E7%81%A3%E5%82%B3%E7%B5%B1%E8%97%9D%E8%A1%93",
    "lang": "zh-TW",
    "desc": "21世紀最大的文化產業奇蹟：年產值千億的霹靂布袋戲帝國，如何從鄉間謝神小戲變成征服全球的文化軟實力？",
    "city": "台南"
  },
  {
    "title": "台灣原住民當代藝術",
    "lat": 25.029119,
    "lng": 121.572408,
    "category": "art",
    "region": "north",
    "link": "/art/%E5%8F%B0%E7%81%A3%E5%8E%9F%E4%BD%8F%E6%B0%91%E7%95%B6%E4%BB%A3%E8%97%9D%E8%A1%93",
    "lang": "zh-TW",
    "desc": "從傳統工藝到當代創作，探索台灣原住民藝術家如何在全球藝術舞台上發聲，重新定義原住民身份與當代藝術的對話",
    "city": "台北"
  },
  {
    "title": "台灣建築",
    "lat": 25.033552,
    "lng": 121.568976,
    "category": "art",
    "region": "north",
    "link": "/art/%E5%8F%B0%E7%81%A3%E5%BB%BA%E7%AF%89",
    "lang": "zh-TW",
    "desc": "從石板屋到摩天樓：一座島嶼的建築時光之旅",
    "city": "台北"
  },
  {
    "title": "台灣新媒體藝術",
    "lat": 25.034842,
    "lng": 121.568721,
    "category": "art",
    "region": "north",
    "link": "/art/%E5%8F%B0%E7%81%A3%E6%96%B0%E5%AA%92%E9%AB%94%E8%97%9D%E8%A1%93",
    "lang": "zh-TW",
    "desc": "從1980年代錄像先驅到威尼斯VR大獎，16位關鍵藝術家與40年數位藝術革命的完整脈絡。台灣如何用程式碼寫詩，在國際藝術版圖刻下自己的名字。",
    "city": "台北"
  },
  {
    "title": "台灣水彩畫的百年流變",
    "lat": 24.804,
    "lng": 120.969,
    "category": "art",
    "region": "north",
    "link": "/art/%E5%8F%B0%E7%81%A3%E6%B0%B4%E5%BD%A9%E7%95%AB%E7%9A%84%E7%99%BE%E5%B9%B4%E6%B5%81%E8%AE%8A",
    "lang": "zh-TW",
    "desc": "從日治時期石川欽一郎的啟蒙，到當代簡忠威揚名國際，台灣水彩畫走過百年歷程，成為亞洲最活躍的水彩創作重鎮。",
    "city": "新竹"
  },
  {
    "title": "台灣現代詩",
    "lat": 24.081,
    "lng": 120.539,
    "category": "art",
    "region": "central",
    "link": "/art/%E5%8F%B0%E7%81%A3%E7%8F%BE%E4%BB%A3%E8%A9%A9",
    "lang": "zh-TW",
    "desc": "從三個書房走出的現代主義實驗，如何意外催生最鄉土的詩歌革命",
    "city": "彰化"
  },
  {
    "title": "台灣當代雕塑發展",
    "lat": 25.025834,
    "lng": 121.566282,
    "category": "art",
    "region": "north",
    "link": "/art/%E5%8F%B0%E7%81%A3%E7%95%B6%E4%BB%A3%E9%9B%95%E5%A1%91%E7%99%BC%E5%B1%95",
    "lang": "zh-TW",
    "desc": "從楊英風、朱銘到新世代，探索台灣雕塑藝術的演變軌跡與創作精神",
    "city": "台北"
  },
  {
    "title": "台灣策展人與藝術文化建構",
    "lat": 25.025249,
    "lng": 121.559167,
    "category": "art",
    "region": "north",
    "link": "/art/%E5%8F%B0%E7%81%A3%E7%AD%96%E5%B1%95%E4%BA%BA%E8%88%87%E8%97%9D%E8%A1%93%E6%96%87%E5%8C%96%E5%BB%BA%E6%A7%8B",
    "lang": "zh-TW",
    "desc": "從 1990 年代初的機構萌芽到今日的國際平台，台灣策展人如何在全球化浪潮中建構本土藝術論述，又如何在國際雙年展體系中找到自己的聲音？一段關於文化身份認同與專業建制的 30 年演化史。",
    "city": "台北"
  },
  {
    "title": "戰後台灣文學：從不能說的事，學會怎麼說（1945-1987）",
    "lat": 22.661,
    "lng": 121.497,
    "category": "art",
    "region": "east",
    "link": "/art/%E6%88%B0%E5%BE%8C%E5%8F%B0%E7%81%A3%E6%96%87%E5%AD%B8",
    "lang": "zh-TW",
    "desc": "1945 年 8 月，葉石濤 20 歲從日本陸軍退伍回到台南，打開稿紙一個中文字都寫不出來。這張白紙要等他 42 年。中間是失語、入獄、論戰、學會迂迴。1987 年 2 月，他出了一本 232 頁的書，書名只有「台灣」兩個字。",
    "city": "台東"
  },
  {
    "title": "林經堯：從太極雲手到演算法，他用「存在卻看不見的」作答",
    "lat": 22.627,
    "lng": 120.301,
    "category": "art",
    "region": "south",
    "link": "/art/%E6%9E%97%E7%B6%93%E5%A0%AF",
    "lang": "zh-TW",
    "desc": "出生於高雄，台北藝術大學音樂作曲學士、新媒體藝術碩士，台灣大學資訊網路與多媒體博士，巴黎高等美術學院博士後。曾任清華大學、南藝大教授，C-LAB 臺灣聲響實驗室總監（2019），現任台大 D-School 創新領域學士學程專案助理教授。2022 年以《Metaphysics》登上 Art Blocks（200 版）、《Mythologic》在香港巴塞爾互動鑄造展出，是 FAB DAO 百岳計畫《秘境》系列的生成藝術家。他的創作核心命題十五年沒變過：「世界上許多事物是可感知但不可見的。」",
    "city": "高雄"
  },
  {
    "title": "王新仁（阿亂）：用程式碼生成山水、把公益寫進合約的生成藝術家",
    "lat": 25.03124,
    "lng": 121.563429,
    "category": "art",
    "region": "north",
    "link": "/art/%E7%8E%8B%E6%96%B0%E4%BB%81",
    "lang": "zh-TW",
    "desc": "1982 年生於台中，台北藝術大學新媒體藝術碩士。2021 年 8 月 22 日，他的《Good Vibrations》成為首位登上 Art Blocks 的臺灣藝術家作品，1,024 份 NFT 一小時內售罄。隔年他加入 FAB DAO《百岳計畫》六人陣容，打造亞洲第一個把公益寫進智能合約的 NFT 永續分潤結構。他的創作橫跨 Art Blocks、Verse.works、fxhash、Tezos，在 Art Basel Hong Kong 展《Chaos Culture》、與 C-LAB 合作沉浸式聲響《好抖》、Polypaths 系列由國立臺灣博物館典藏，2026 年最新作品 inkField 透過 Claude Code 協作開發，把人類的猶豫與停頓留在生成系統裡。",
    "city": "台北"
  },
  {
    "title": "王連晟（蝦爸）：讓 23 台機器同時翻《論語》的台灣聲音裝置藝術家",
    "lat": 25.040174,
    "lng": 121.566648,
    "category": "art",
    "region": "north",
    "link": "/art/%E7%8E%8B%E9%80%A3%E6%99%9F",
    "lang": "zh-TW",
    "desc": "1985 年生於台北，東華資工系、北藝大科技藝術所出身。2017 年他以《閱讀計畫》（23 台自動翻書機械同時朗讀《論語》）在倫敦拿下流明獎（Lumen Prize）雕塑類首獎，隔年再拿台北美術獎首獎。他是台灣聲音藝術團體 i/O Lab 成員、失聲祭 2009-2010 主理人、FAB DAO 百岳計畫六位藝術家之一，現任北藝大新媒體藝術系助理教授。從 2022 年北美館《混沌邊界》五組自動運行裝置，到 2025 年關渡美術館《機器之後》用佛像、基督像、道教神祇的自動化平台審問 AI 倫理，王連晟是把演算法、機械、聲音三條線寫進同一部當代聲音藝術史的台灣創作者。",
    "city": "台北"
  },
  {
    "title": "台灣當代藝術",
    "lat": 25.036112,
    "lng": 121.565373,
    "category": "art",
    "region": "north",
    "link": "/art/%E7%95%B6%E4%BB%A3%E8%97%9D%E8%A1%93",
    "lang": "zh-TW",
    "desc": "從北美館到威尼斯雙年展台灣館，台灣當代藝術在全球舞台的獨特位置",
    "city": "台北"
  },
  {
    "title": "紀柏豪：從經濟學走進聲響的人，用演算法追問一件事——你到底聽進去了嗎",
    "lat": 25.035725,
    "lng": 121.568821,
    "category": "art",
    "region": "north",
    "link": "/art/%E7%B4%80%E6%9F%8F%E8%B1%AA",
    "lang": "zh-TW",
    "desc": "紀柏豪（Pohao Chi），聲音藝術家、作曲家、策展人。台大經濟系畢業，赴倫敦金匠學院取得音樂碩士，2021 年於 MIT 藝術文化科技碩士畢業，同年以《Plantfluencer Gazing》拿下 MIT Harold and Arlene Schnitzer Prize 視覺藝術首獎。早年是 Hello Nico 樂團合成器手，後創立融聲創意 Zone Sound Creative 工作室（2017）。作品《空間的節奏》入選 2014 台北美術獎、《3000 Years Among Microbes》獲文化部補助赴 MIT 合作，2025 年於 C-LAB 聲響藝術節 DIVERSONICS 發表《朗誦者 2.0》。他用演算法、GPS、AI 合成聲音量測世界，卻始終追問同一個問題：怎麼讓人從被動的 hear，回到主動的 listen。",
    "city": "台北"
  },
  {
    "title": "謝德慶：把 14 年非法身分活成一件行為藝術的台灣藝術家",
    "lat": 22.682,
    "lng": 120.484,
    "category": "art",
    "region": "south",
    "link": "/art/%E8%AC%9D%E5%BE%B7%E6%85%B6",
    "lang": "zh-TW",
    "desc": "1978 年紐約 Tribeca，他自願走進自己釘的木籠關了一年，不說話、不讀書、不寫字。接下來五年他用打卡、繩子、街頭流浪把時間變成作品；之後 13 年做藝術但不公開。謝德慶從屏東南州出發，1974 年跳船成為紐約非法移民整整 14 年。當其他藝術家畫自由，他選擇用囚禁證明時間本身就是藝術。",
    "city": "屏東"
  },
  {
    "title": "造山者：世紀的賭注 — 一部沒張忠謀的 TSMC 史詩，從新竹拍到普渡",
    "lat": 24.802141,
    "lng": 120.976856,
    "category": "art",
    "region": "north",
    "link": "/art/%E9%80%A0%E5%B1%B1%E8%80%85%E4%B8%96%E7%B4%80%E7%9A%84%E8%B3%AD%E6%B3%A8",
    "lang": "zh-TW",
    "desc": "2025 年 6 月某個傍晚，84 歲的張忠謀夫婦自費買了兩張票走進信義威秀。電影裡沒有他正面受訪的鏡頭——他正在寫自傳下冊。蕭菊貞花五年訪了 80 多位前輩，從小欣欣豆漿店 1974 年那場早餐會報拍到 2025 年魏哲家進白宮，《造山者：世紀的賭注》（A Chip Odyssey）成為台灣紀錄片影史前五，2026 年走進普渡、威斯康辛、密西根三所 CHIPS Act 投資重鎮的大學講堂。",
    "city": "新竹"
  },
  {
    "title": "金馬賓館當代美術館",
    "lat": 22.63398,
    "lng": 120.294981,
    "category": "art",
    "region": "south",
    "link": "/art/%E9%87%91%E9%A6%AC%E8%B3%93%E9%A4%A8%E7%95%B6%E4%BB%A3%E7%BE%8E%E8%A1%93%E9%A4%A8",
    "lang": "zh-TW",
    "desc": "一座見證離別與重逢的冷戰軍事驛站，沉睡二十年後被一對父女喚醒，成為《孤獨星球》推薦的高雄首選美術館。",
    "city": "高雄"
  },
  {
    "title": "人間雜誌",
    "lat": 24.994,
    "lng": 121.301,
    "category": "culture",
    "region": "north",
    "link": "/culture/%E4%BA%BA%E9%96%93%E9%9B%9C%E8%AA%8C",
    "lang": "zh-TW",
    "desc": "47 期，四年，一場用攝影和文字發動的安靜革命——台灣報導文學的起點",
    "city": "桃園"
  },
  {
    "title": "台灣原住民神話：從洪水到創世的口傳史詩",
    "lat": 23.47,
    "lng": 120.957,
    "category": "culture",
    "region": "central",
    "link": "/culture/%E5%8E%9F%E4%BD%8F%E6%B0%91%E7%A5%9E%E8%A9%B1",
    "lang": "zh-TW",
    "desc": "台灣原住民神話不僅是古老故事，更是族群記憶與文化傳承的活化石，承載著與自然共存的智慧與生命觀。",
    "city": "南投"
  },
  {
    "title": "台灣原住民族16族文化地圖",
    "lat": 22.033,
    "lng": 121.549,
    "category": "culture",
    "region": "east",
    "link": "/culture/%E5%8F%B0%E7%81%A3%E5%8E%9F%E4%BD%8F%E6%B0%91%E6%97%8F16%E6%97%8F%E6%96%87%E5%8C%96%E5%9C%B0%E5%9C%96",
    "lang": "zh-TW",
    "desc": "「16」不是自然生成的數字，是談判的結果。從21萬阿美族到441人的卡那卡那富族，台灣原住民族的文化厚度遠超過任何一份官方名冊。",
    "city": "台東"
  },
  {
    "title": "台灣宗教與寺廟文化",
    "lat": 25.031252,
    "lng": 121.571982,
    "category": "culture",
    "region": "north",
    "link": "/culture/%E5%8F%B0%E7%81%A3%E5%AE%97%E6%95%99%E8%88%87%E5%AF%BA%E5%BB%9F%E6%96%87%E5%8C%96",
    "lang": "zh-TW",
    "desc": "一萬五千座廟宇比便利商店還多的島嶼，佛道民間三教共用一座屋頂，媽祖遶境百萬人徒步九天——台灣的信仰不在經文裡，在轉角的香火中。",
    "city": "台北"
  },
  {
    "title": "台灣感性：韓國人眼中的台式美學",
    "lat": 25.057,
    "lng": 121.51,
    "category": "culture",
    "region": "north",
    "link": "/culture/%E5%8F%B0%E7%81%A3%E6%84%9F%E6%80%A7",
    "lang": "zh-TW",
    "desc": "兩個高雄人花十年拍下兩千種鐵窗花，韓國人花五年把它拍成一個文化現象——「대만감성」如何讓台灣的日常街景成為亞洲最迷人的美學符號",
    "city": "台北"
  },
  {
    "title": "台灣文化創意園區發展",
    "lat": 22.612912,
    "lng": 120.28135,
    "category": "culture",
    "region": "south",
    "link": "/culture/%E5%8F%B0%E7%81%A3%E6%96%87%E5%8C%96%E5%89%B5%E6%84%8F%E5%9C%92%E5%8D%80%E7%99%BC%E5%B1%95",
    "lang": "zh-TW",
    "desc": "從舊建築活化到創意聚落，台灣文化創意園區的發展歷程與創新模式",
    "city": "高雄"
  },
  {
    "title": "台灣殯葬文化與生死觀",
    "lat": 25.025338,
    "lng": 121.562162,
    "category": "culture",
    "region": "north",
    "link": "/culture/%E5%8F%B0%E7%81%A3%E6%AE%AF%E8%91%AC%E6%96%87%E5%8C%96%E8%88%87%E7%94%9F%E6%AD%BB%E8%A7%80",
    "lang": "zh-TW",
    "desc": "從孝女白琴的哭聲到詠愛園的樹葬——台灣人花了五十年從土葬走向火葬，又花十年從靈骨塔走向一棵樹下。",
    "city": "台北"
  },
  {
    "title": "台灣獸迷文化",
    "lat": 22.623539,
    "lng": 120.304849,
    "category": "culture",
    "region": "south",
    "link": "/culture/%E5%8F%B0%E7%81%A3%E7%8D%B8%E8%BF%B7%E6%96%87%E5%8C%96",
    "lang": "zh-TW",
    "desc": "2015 年，台灣第一場獸迷大會只來了約 50 人，獸裝師不到 10 個。十年後，獸無限單場 3,251 人、689 套獸裝同台、慈善募款近百萬元。台灣獸迷從撥接時代的 BBS 討論，長成了亞洲最具組織力的擬人化動物愛好者社群。",
    "city": "高雄"
  },
  {
    "title": "台灣老街文化與商業街區",
    "lat": 25.109,
    "lng": 121.845,
    "category": "culture",
    "region": "north",
    "link": "/culture/%E5%8F%B0%E7%81%A3%E8%80%81%E8%A1%97%E6%96%87%E5%8C%96%E8%88%87%E5%95%86%E6%A5%AD%E8%A1%97%E5%8D%80",
    "lang": "zh-TW",
    "desc": "從清代港口繁華到日治巴洛克洋樓，台灣老街是一部用磚瓦寫成的庶民史",
    "city": "新北"
  },
  {
    "title": "黃金時代的餘韻：台灣茶文化的流變與工藝",
    "lat": 23.51,
    "lng": 120.7,
    "category": "culture",
    "region": "south",
    "link": "/culture/%E5%8F%B0%E7%81%A3%E8%8C%B6%E6%96%87%E5%8C%96",
    "lang": "zh-TW",
    "desc": "1930年代列強簽了限產協定把台灣排除在外，結果台灣紅茶趁勢暴衝——從329萬公斤到580萬。90年後，同一座島嶼每30分鐘開一家手搖飲店。",
    "city": "嘉義"
  },
  {
    "title": "台灣茶道與生活美學",
    "lat": 23.51551,
    "lng": 120.701922,
    "category": "culture",
    "region": "south",
    "link": "/culture/%E5%8F%B0%E7%81%A3%E8%8C%B6%E9%81%93%E8%88%87%E7%94%9F%E6%B4%BB%E7%BE%8E%E5%AD%B8",
    "lang": "zh-TW",
    "desc": "一隻蟲咬出的蜜香、一棟日式老屋裡的民主運動、一杯珍奶征服的全球市場——台灣茶文化如何從殖民遺產長成獨特的生活美學",
    "city": "嘉義"
  },
  {
    "title": "台灣街頭藝術與塗鴉文化",
    "lat": 25.02854,
    "lng": 121.558987,
    "category": "culture",
    "region": "north",
    "link": "/culture/%E5%8F%B0%E7%81%A3%E8%A1%97%E9%A0%AD%E8%97%9D%E8%A1%93%E8%88%87%E5%A1%97%E9%B4%89%E6%96%87%E5%8C%96",
    "lang": "zh-TW",
    "desc": "從地下塗鴉到合法彩繪，城市牆面如何成為台灣藝術家的創作舞台",
    "city": "台北"
  },
  {
    "title": "台灣製香文化與香腳原鄉",
    "lat": 24.055,
    "lng": 120.437,
    "category": "culture",
    "region": "central",
    "link": "/culture/%E5%8F%B0%E7%81%A3%E8%A3%BD%E9%A6%99%E6%96%87%E5%8C%96%E8%88%87%E9%A6%99%E8%85%B3%E5%8E%9F%E9%84%89",
    "lang": "zh-TW",
    "desc": "從嘉義雲霄社區的百年香腳技藝，到台灣遍布全島的製香產業——一門關於虔誠、手藝與堅持的古老行業",
    "city": "彰化"
  },
  {
    "title": "台灣諧音禁忌文化：為什麼「四」讓整個社會跳過樓層？",
    "lat": 24.993418,
    "lng": 121.302113,
    "category": "culture",
    "region": "north",
    "link": "/culture/%E5%8F%B0%E7%81%A3%E8%AB%A7%E9%9F%B3%E7%A6%81%E5%BF%8C%E6%96%87%E5%8C%96",
    "lang": "zh-TW",
    "desc": "從醫院沒有四樓到車牌8888天價標售，台灣人對諧音的敏感程度堪稱世界之最",
    "city": "桃園"
  },
  {
    "title": "國立故宮博物院",
    "lat": 25.102,
    "lng": 121.549,
    "category": "culture",
    "region": "north",
    "link": "/culture/%E5%9C%8B%E7%AB%8B%E6%95%85%E5%AE%AE%E5%8D%9A%E7%89%A9%E9%99%A2",
    "lang": "zh-TW",
    "desc": "它是這座島嶼上最沈重的「行李」，也是最輕盈的「數位幻境」。從戰火中的木箱到 AI 算力下的像素，故宮正試圖在台北外雙溪與嘉義太保之間，定義什麼是「台灣的故宮」。",
    "city": "台北"
  },
  {
    "title": "客家文化與語言",
    "lat": 22.674429,
    "lng": 120.484865,
    "category": "culture",
    "region": "south",
    "link": "/culture/%E5%AE%A2%E5%AE%B6%E6%96%87%E5%8C%96%E8%88%87%E8%AA%9E%E8%A8%80",
    "lang": "zh-TW",
    "desc": "一群人在 1988 年把孫中山的照片戴上口罩遊行，只為了爭回說母語的權利——他們贏了，但語言還在消失",
    "city": "屏東"
  },
  {
    "title": "擲筊：在 50% 的機率背後，聽見神明的聲音",
    "lat": 23.48,
    "lng": 120.449,
    "category": "culture",
    "region": "south",
    "link": "/culture/%E6%93%B2%E7%AD%8A",
    "lang": "zh-TW",
    "desc": "從嘉義竹頭筊職人黃奕薰的堅持，到屏東慈天宮 20 個聖筊的 300 萬傳奇，探討台灣人與神明溝通的機率與溫度。",
    "city": "嘉義"
  },
  {
    "title": "族群（閩南客家原住民外省新住民）",
    "lat": 25.036185,
    "lng": 121.566415,
    "category": "culture",
    "region": "north",
    "link": "/culture/%E6%97%8F%E7%BE%A4%EF%BC%88%E9%96%A9%E5%8D%97%E5%AE%A2%E5%AE%B6%E5%8E%9F%E4%BD%8F%E6%B0%91%E5%A4%96%E7%9C%81%E6%96%B0%E4%BD%8F%E6%B0%91%EF%BC%89",
    "lang": "zh-TW",
    "desc": "一場道歉儀式、一萬人的遊行、57萬個新來的家庭——台灣族群的故事，比「多元共融」四個字複雜得多。",
    "city": "台北"
  },
  {
    "title": "澎湖民俗文化",
    "lat": 23.571,
    "lng": 119.579,
    "category": "culture",
    "region": "islands",
    "link": "/culture/%E6%BE%8E%E6%B9%96%E6%B0%91%E4%BF%97%E6%96%87%E5%8C%96",
    "lang": "zh-TW",
    "desc": "每年正月十五，澎湖兩百多座廟宇同時擲筊、四萬七千斤米龜堆上供桌——這座被東北季風吹了四百年的群島，用乞龜換回出海的人，用石滬困住退潮的魚，用褒歌對唱一整個冬天的寂寞。",
    "city": "澎湖"
  },
  {
    "title": "神豬：台灣信仰與動物權的百年拉扯與轉型之路",
    "lat": 25.025442,
    "lng": 121.561099,
    "category": "culture",
    "region": "north",
    "link": "/culture/%E7%A5%9E%E8%B1%AC",
    "lang": "zh-TW",
    "desc": "神豬文化是台灣閩客族群特有的祭祀傳統，核心在於將巨型豬隻獻祭神明。其起源於清代義民信仰，經日治時期畜牧推廣轉向競重，現代則因「下窟」限制行動與強迫灌食引發動物福利爭議。各地祭典正以「創意神豬」或「自然飼養」轉型，尋求信仰與生命尊嚴的平衡。",
    "city": "台北"
  },
  {
    "title": "紙傘：從雨具到藝術，撐起台灣客家文化的百年風華",
    "lat": 22.63389,
    "lng": 120.303874,
    "category": "culture",
    "region": "south",
    "link": "/culture/%E7%B4%99%E5%82%98",
    "lang": "zh-TW",
    "desc": "在高雄美濃，一把看似尋常的紙傘，不僅承載著客家「早生貴子」與「圓滿」的祝福，更在產業低谷中，透過匠人林享麟的堅持與《漢聲》雜誌的報導，從日常雨具蛻變為國際矚目的藝術品，訴說著台灣傳統工藝如何逆境重生，並在現代社會中找到新定位的百年故事。",
    "city": "高雄"
  },
  {
    "title": "藍染",
    "lat": 24.561,
    "lng": 120.821,
    "category": "culture",
    "region": "central",
    "link": "/culture/%E8%97%8D%E6%9F%93",
    "lang": "zh-TW",
    "desc": "它曾經是台灣排名第三的出口商品，讓北台灣的山城一夜致富；後來它消失了半個世紀，直到一群人決定把那抹「台灣藍」從土裡種回來。",
    "city": "苗栗"
  },
  {
    "title": "關聖帝君：一個敗軍之將如何成為台灣的萬能之神",
    "lat": 25.03384,
    "lng": 121.571123,
    "category": "culture",
    "region": "north",
    "link": "/culture/%E9%97%9C%E8%81%96%E5%B8%9D%E5%90%9B%E4%BF%A1%E4%BB%B0",
    "lang": "zh-TW",
    "desc": "三國武將關羽兵敗被斬首，卻在台灣演化出全球獨有的「恩主公」信仰體系——而全台最繁忙的關帝廟，連一炷香都不讓你燒。",
    "city": "台北"
  },
  {
    "title": "黑白大廚在台灣：一檔 Netflix 韓綜，16 個月內接進 7 條消費產業的味覺壓力測試",
    "lat": 24.992746,
    "lng": 121.300614,
    "category": "culture",
    "region": "north",
    "link": "/culture/%E9%BB%91%E7%99%BD%E5%A4%A7%E5%BB%9A%E5%9C%A8%E5%8F%B0%E7%81%A3",
    "lang": "zh-TW",
    "desc": "2024 年 9 月，Netflix《黑白大廚：料理階級大戰》首播當週就在台灣奪下收視冠軍。接下來 16 個月，節目裡 9 位韓國主廚透過聯名、客座、代言的方式，把觸角伸進台灣超商鮮食、手搖飲、速食連鎖、五星飯店自助餐、外送平台、連鎖韓食、甚至 Galaxy Z 摺疊機——七條幾乎互不相關的消費產業。其中金太星背書的手搖品牌「十盛」撐了 20 個月後於 2025-12-26 歇業，是台灣第一次對「韓綜主廚背書」做反向檢驗。",
    "city": "桃園"
  },
  {
    "title": "台灣中小企業與隱形冠軍：171萬家平凡無奇企業撐起的經濟奇蹟",
    "lat": 24.086006,
    "lng": 120.534792,
    "category": "economy",
    "region": "central",
    "link": "/economy/%E5%8F%B0%E7%81%A3%E4%B8%AD%E5%B0%8F%E4%BC%81%E6%A5%AD%E8%88%87%E9%9A%B1%E5%BD%A2%E5%86%A0%E8%BB%8D",
    "lang": "zh-TW",
    "desc": "真正支撐台灣經濟的不是護國神山，而是171萬家看似平凡、卻創造79%就業機會的隱形冠軍。從1960年代黑手師傅起家，到今日掌控全球利基市場的精密製造王國。",
    "city": "彰化"
  },
  {
    "title": "中鋼：鐵頭部長與十大建設的鋼鐵傳奇",
    "lat": 22.619046,
    "lng": 120.302537,
    "category": "economy",
    "region": "south",
    "link": "/economy/%E5%8F%B0%E7%81%A3%E4%BC%81%E6%A5%AD%EF%BC%9A%E4%B8%AD%E9%8B%BC",
    "lang": "zh-TW",
    "desc": "從趙耀東歐美談判智取技術，到高雄小港升起的第一縷白煙，中鋼用50年打造台灣重工業脊樑，是十大建設最成功的明珠",
    "city": "高雄"
  },
  {
    "title": "台泥：台灣第一上市公司的綠色轉型傳奇",
    "lat": 22.998071,
    "lng": 120.160933,
    "category": "economy",
    "region": "south",
    "link": "/economy/%E5%8F%B0%E7%81%A3%E4%BC%81%E6%A5%AD%EF%BC%9A%E5%8F%B0%E6%B3%A5",
    "lang": "zh-TW",
    "desc": "1962年台灣證交所為它而生，股票代號1101象徵台股起源。從辜家三代經營76年，台泥用一座座水泥窯見證台灣建設奇蹟，如今轉型綠色企業迎戰碳中和時代",
    "city": "台南"
  },
  {
    "title": "台灣企業：台積電",
    "lat": 24.803742,
    "lng": 120.967266,
    "category": "economy",
    "region": "north",
    "link": "/economy/%E5%8F%B0%E7%81%A3%E4%BC%81%E6%A5%AD%EF%BC%9A%E5%8F%B0%E7%A9%8D%E9%9B%BB",
    "lang": "zh-TW",
    "desc": "一個 56 歲的人在 1987 年創辦了一種「全世界沒人做過」的公司，然後它變成了地球上最重要的工廠",
    "city": "新竹"
  },
  {
    "title": "奇美實業：許文龍的壓克力王國與博物館夢想",
    "lat": 22.935,
    "lng": 120.226,
    "category": "economy",
    "region": "south",
    "link": "/economy/%E5%8F%B0%E7%81%A3%E4%BC%81%E6%A5%AD%EF%BC%9A%E5%A5%87%E7%BE%8E%E5%AF%A6%E6%A5%AD",
    "lang": "zh-TW",
    "desc": "從1960年台南仁德小工廠起步，許文龍用一生打造亞洲最大ABS材料王國，更創建奇美博物館回饋社會。證明台灣企業可以兼顧商業成功與人文關懷",
    "city": "台南"
  },
  {
    "title": "宏碁集團 (Acer) - PC 產業的變革先驅",
    "lat": 25.001608,
    "lng": 121.294919,
    "category": "economy",
    "region": "north",
    "link": "/economy/%E5%8F%B0%E7%81%A3%E4%BC%81%E6%A5%AD%EF%BC%9A%E5%AE%8F%E7%A2%81",
    "lang": "zh-TW",
    "desc": "從台灣桃園起家的個人電腦先驅，創造「多品牌、多通路」商業模式，成為全球 PC 產業的變革引擎",
    "city": "桃園"
  },
  {
    "title": "台灣企業：巨大機械",
    "lat": 25.036938,
    "lng": 121.571165,
    "category": "economy",
    "region": "north",
    "link": "/economy/%E5%8F%B0%E7%81%A3%E4%BC%81%E6%A5%AD%EF%BC%9A%E5%B7%A8%E5%A4%A7%E6%A9%9F%E6%A2%B0",
    "lang": "zh-TW",
    "desc": "從被美國大廠拋棄的代工奴隸，到制定全球自行車技術標準的隱形帝國",
    "city": "台北"
  },
  {
    "title": "台灣企業：廣達電腦",
    "lat": 25.038954,
    "lng": 121.55869,
    "category": "economy",
    "region": "north",
    "link": "/economy/%E5%8F%B0%E7%81%A3%E4%BC%81%E6%A5%AD%EF%BC%9A%E5%BB%A3%E9%81%94%E9%9B%BB%E8%85%A6",
    "lang": "zh-TW",
    "desc": "從工廠火災到全球筆電王，林百里如何建造AI時代的新帝國？",
    "city": "台北"
  },
  {
    "title": "台灣企業：日月光半導體",
    "lat": 22.629023,
    "lng": 120.307953,
    "category": "economy",
    "region": "south",
    "link": "/economy/%E5%8F%B0%E7%81%A3%E4%BC%81%E6%A5%AD%EF%BC%9A%E6%97%A5%E6%9C%88%E5%85%89%E5%8D%8A%E5%B0%8E%E9%AB%94",
    "lang": "zh-TW",
    "desc": "全球第一大封測廠，建設公司老闆為何轉戰半導體？",
    "city": "高雄"
  },
  {
    "title": "台灣企業：玉山金控",
    "lat": 23.471795,
    "lng": 120.961222,
    "category": "economy",
    "region": "central",
    "link": "/economy/%E5%8F%B0%E7%81%A3%E4%BC%81%E6%A5%AD%EF%BC%9A%E7%8E%89%E5%B1%B1%E9%87%91%E6%8E%A7",
    "lang": "zh-TW",
    "desc": "從信用卡專業銀行到數位金融先鋒，43歲最年輕金控總經理的突破故事",
    "city": "南投"
  },
  {
    "title": "義美：百年固執、食安良心，與社會共好的多維實踐",
    "lat": 25.063244,
    "lng": 121.502985,
    "category": "economy",
    "region": "north",
    "link": "/economy/%E5%8F%B0%E7%81%A3%E4%BC%81%E6%A5%AD%EF%BC%9A%E7%BE%A9%E7%BE%8E%E9%A3%9F%E5%93%81",
    "lang": "zh-TW",
    "desc": "義美食品，這家從日治時期大稻埕「大安醫院」原址起家的糕餅店，如何在高騰蛟與高志明兩代人的固執經營下，成為台灣食品產業的標竿？本文深入探討其從傳統糕餅到現代通路、從食安實驗室到機器人產業的多維實踐，以及其在社會責任與品牌神話中的挑戰與轉型。",
    "city": "台北"
  },
  {
    "title": "遠東集團：從上海紡織廠到台灣最多元化商業帝國",
    "lat": 25.012,
    "lng": 121.465,
    "category": "economy",
    "region": "north",
    "link": "/economy/%E5%8F%B0%E7%81%A3%E4%BC%81%E6%A5%AD%EF%BC%9A%E9%81%A0%E6%9D%B1%E9%9B%86%E5%9C%98",
    "lang": "zh-TW",
    "desc": "87年前上海的一間小紡織廠，如何演變成跨越十大產業、資產逾3兆的台灣商業帝國？遠東集團的發展史，見證了台商從榮耀到政治風險的完整軌跡",
    "city": "新北"
  },
  {
    "title": "台灣企業：長春石化",
    "lat": 22.999,
    "lng": 120.227,
    "category": "economy",
    "region": "south",
    "link": "/economy/%E5%8F%B0%E7%81%A3%E4%BC%81%E6%A5%AD%EF%BC%9A%E9%95%B7%E6%98%A5%E7%9F%B3%E5%8C%96",
    "lang": "zh-TW",
    "desc": "1949年台南小工廠到全球化工巨頭，「不上市不借錢」的隱形冠軍故事",
    "city": "台南"
  },
  {
    "title": "台灣機械工具產業",
    "lat": 24.148,
    "lng": 120.674,
    "category": "economy",
    "region": "central",
    "link": "/economy/%E5%8F%B0%E7%81%A3%E6%A9%9F%E6%A2%B0%E5%B7%A5%E5%85%B7%E7%94%A2%E6%A5%AD",
    "lang": "zh-TW",
    "desc": "從大肚山黃金縱谷到 TMTS 2026，台灣工具機產業的韌性、崩盤、重生，以及為什麼 2024 年從全球第 5 掉到第 7 的結構性焦慮。",
    "city": "台中"
  },
  {
    "title": "夜市經濟學：一場沒有品牌的商業奇蹟",
    "lat": 24.179,
    "lng": 120.647,
    "category": "economy",
    "region": "central",
    "link": "/economy/%E5%A4%9C%E5%B8%82%E7%B6%93%E6%BF%9F%E5%AD%B8",
    "lang": "zh-TW",
    "desc": "探索台灣夜市如何在沒有品牌、裝潢和固定地點的情況下，創造年產值近4000億的經濟奇蹟",
    "city": "台中"
  },
  {
    "title": "經濟奇蹟",
    "lat": 22.619835,
    "lng": 120.298945,
    "category": "economy",
    "region": "south",
    "link": "/economy/%E7%B6%93%E6%BF%9F%E5%A5%87%E8%B9%9F",
    "lang": "zh-TW",
    "desc": "1952年，台灣人均GDP只有196美元，比海地還窮。40年後，台灣成為「亞洲四小龍」之首，人均GDP超過1萬美元。但這個「奇蹟」的代價是什麼？當我們讚美台灣錢淹腳目的年代時，很少人談起那些在加工出口區裡每天工作12小時的女工，和那些把一生積蓄押在小工廠裡的老闆們。",
    "city": "高雄"
  },
  {
    "title": "三峽茶：從「青心柑仔」的螺旋轉向，到夏茶價值的蜜香升級",
    "lat": 25.037396,
    "lng": 121.562751,
    "category": "food",
    "region": "north",
    "link": "/food/%E4%B8%89%E5%B3%BD%E8%8C%B6",
    "lang": "zh-TW",
    "desc": "三峽是台灣最具代表性的專業炒菁綠茶產區，其產業路徑是一場關於「適應」的長期實驗。從清同治年間的陶德發現，到日治時期綠茶外銷的受壓制，再到 1990 年代末期碧螺春的正式定名，三峽茶農在特有品種與土地開發的夾縫中，勾勒出台灣綠茶的在地標準。",
    "city": "台北"
  },
  {
    "title": "台灣咖啡產業",
    "lat": 23.511779,
    "lng": 120.704117,
    "category": "food",
    "region": "south",
    "link": "/food/%E5%8F%B0%E7%81%A3%E5%92%96%E5%95%A1%E7%94%A2%E6%A5%AD",
    "lang": "zh-TW",
    "desc": "從德記洋行1884年的100株苗木到2024年首屆CoE卓越盃，一個島嶼如何在140年間打造出年進口4.3萬公噸的咖啡王國",
    "city": "嘉義"
  },
  {
    "title": "台灣小吃",
    "lat": 25.088,
    "lng": 121.524,
    "category": "food",
    "region": "north",
    "link": "/food/%E5%8F%B0%E7%81%A3%E5%B0%8F%E5%90%83",
    "lang": "zh-TW",
    "desc": "1987年春水堂的一個失誤，讓珍珠奶茶走進60國市場。台灣小吃從清代移民的生存工具，到今天23.3萬個攤位撐起的4000億產業：它的成功方程式不是精緻化，而是那種「管它的，先試試看」的草根勇氣。",
    "city": "台北"
  },
  {
    "title": "台灣手路菜：意思、由來與辦桌文化的「拿手好菜」",
    "lat": 22.627072,
    "lng": 120.296828,
    "category": "food",
    "region": "south",
    "link": "/food/%E5%8F%B0%E7%81%A3%E6%89%8B%E8%B7%AF%E8%8F%9C",
    "lang": "zh-TW",
    "desc": "手路菜（台語 tshiú-lōo-tshài）是「拿手好菜」的意思。高雄內門的白堊土種不出作物，卻養出全台密度最高的總鋪師——黃金年代一年辦 25,000 桌，大月營收 1,200 萬。一鍋菜尾湯要花四到八小時，結得好不好，全村隔天都知道。",
    "city": "高雄"
  },
  {
    "title": "台灣新住民美食融合",
    "lat": 25.029091,
    "lng": 121.559649,
    "category": "food",
    "region": "north",
    "link": "/food/%E5%8F%B0%E7%81%A3%E6%96%B0%E4%BD%8F%E6%B0%91%E7%BE%8E%E9%A3%9F%E8%9E%8D%E5%90%88",
    "lang": "zh-TW",
    "desc": "當泰式酸辣遇上台灣甜鹹、當越南河粉邂逅台式滷味、當印尼香料擁抱本土食材，一場跨越國界的味覺革命正在台灣悄然發生。新住民帶來的不只是故鄉的料理，更是豐富台灣美食文化的全新可能。",
    "city": "台北"
  },
  {
    "title": "台灣海鮮文化",
    "lat": 25.128,
    "lng": 121.739,
    "category": "food",
    "region": "north",
    "link": "/food/%E5%8F%B0%E7%81%A3%E6%B5%B7%E9%AE%AE%E6%96%87%E5%8C%96",
    "lang": "zh-TW",
    "desc": "漁港新鮮直送、海鮮餐廳文化、蚵仔煎等海味料理，展現台灣四面環海的島嶼特色與豐富的海鮮飲食傳統",
    "city": "基隆"
  },
  {
    "title": "台灣滷肉飯",
    "lat": 25.040333,
    "lng": 121.559957,
    "category": "food",
    "region": "north",
    "link": "/food/%E5%8F%B0%E7%81%A3%E6%BB%B7%E8%82%89%E9%A3%AF",
    "lang": "zh-TW",
    "desc": "從眷村廚房到國民美食，探索台灣滷肉飯的南北戰爭與文化認同",
    "city": "台北"
  },
  {
    "title": "台灣米其林：星光下的代價與重新定義",
    "lat": 25.034279,
    "lng": 121.570133,
    "category": "food",
    "region": "north",
    "link": "/food/%E5%8F%B0%E7%81%A3%E7%B1%B3%E5%85%B6%E6%9E%97%E8%88%87%E7%B2%BE%E7%B7%BB%E9%A4%90%E9%A3%B2",
    "lang": "zh-TW",
    "desc": "2018 年米其林登陸台灣，表面上是國際認證的榮耀，實際上重新劃分了餐飲業的生存規則——「幾乎夠格」的餐廳，反而成了最大受害者。",
    "city": "台北"
  },
  {
    "title": "台灣米食文化",
    "lat": 24.80633,
    "lng": 120.975221,
    "category": "food",
    "region": "north",
    "link": "/food/%E5%8F%B0%E7%81%A3%E7%B1%B3%E9%A3%9F%E6%96%87%E5%8C%96",
    "lang": "zh-TW",
    "desc": "從年吃 85 公斤到 42 公斤：一個稻米島國的飲食革命與文化堅持",
    "city": "新竹"
  },
  {
    "title": "台灣素食文化",
    "lat": 25.030948,
    "lng": 121.557174,
    "category": "food",
    "region": "north",
    "link": "/food/%E5%8F%B0%E7%81%A3%E7%B4%A0%E9%A3%9F%E6%96%87%E5%8C%96",
    "lang": "zh-TW",
    "desc": "台灣素食人口比例全球前三，從佛教素食傳統到現代素料創新的文化演進",
    "city": "台北"
  },
  {
    "title": "台灣辦桌文化",
    "lat": 22.624214,
    "lng": 120.301209,
    "category": "food",
    "region": "south",
    "link": "/food/%E5%8F%B0%E7%81%A3%E8%BE%A6%E6%A1%8C%E6%96%87%E5%8C%96",
    "lang": "zh-TW",
    "desc": "一個清朝就存在的產業，在台灣最貧瘠的土地上養出全球密度最高的總鋪師。疫情讓訂單蒸發九成，但真正讓行家憂心的，從來不是失業——是失傳。",
    "city": "高雄"
  },
  {
    "title": "台灣鹽酥雞",
    "lat": 25.048607,
    "lng": 121.504247,
    "category": "food",
    "region": "north",
    "link": "/food/%E5%8F%B0%E7%81%A3%E9%B9%BD%E9%85%A5%E9%9B%9E",
    "lang": "zh-TW",
    "desc": "1975 年，一個餐廳經營失敗的台南人陳廷智在西門町擺起推車，用祖傳醃料炸雞塊。五十年後，鹽酥雞成了台灣少數不需要夜市、不需要店面、只靠一台推車和一鍋油就能存活的小吃——CNN 兩度將它列入台灣必吃清單，但它最正宗的吃法，永遠是半夜在路邊等那個紙袋。",
    "city": "台北"
  },
  {
    "title": "名間埔中茶：撐起台灣手搖飲八成江山的「無名英雄」",
    "lat": 23.749,
    "lng": 120.688,
    "category": "food",
    "region": "central",
    "link": "/food/%E5%90%8D%E9%96%93%E5%9F%94%E4%B8%AD%E8%8C%B6",
    "lang": "zh-TW",
    "desc": "2025 年名間焚化爐爭議，意外揭露台灣手搖飲 80% 基底茶源自南投名間。從清代「三埔中」美譽到 1975 年更名「松柏長青茶」，這座海拔僅 400 公尺的淺山，正因焚化爐選址陷入一場守護茶鄉生存權的激戰。",
    "city": "南投"
  },
  {
    "title": "嘉義火雞肉飯：一碗三十元的城市身分證",
    "lat": 23.484571,
    "lng": 120.445426,
    "category": "food",
    "region": "south",
    "link": "/food/%E5%98%89%E7%BE%A9%E7%81%AB%E9%9B%9E%E8%82%89%E9%A3%AF",
    "lang": "zh-TW",
    "desc": "二戰後美軍把火雞帶進嘉義，一個叫林添壽的師傅把火雞肉切絲淋上滷汁蓋在白飯上。七十年後，這碗三十元的飯成了農糧署票選台灣十大招牌飯第一名。嘉義人可以為了「哪家最好吃」吵一整個過年，但有一件事他們不吵：火雞肉飯就是嘉義的。",
    "city": "嘉義"
  },
  {
    "title": "夜市文化",
    "lat": 25.081822,
    "lng": 121.517333,
    "category": "food",
    "region": "north",
    "link": "/food/%E5%A4%9C%E5%B8%82%E6%96%87%E5%8C%96",
    "lang": "zh-TW",
    "desc": "164個列管夜市、台南平均3.8萬人擁有一個夜市，從廟埕到國際觀光景點",
    "city": "台北"
  },
  {
    "title": "太陽餅：從戒嚴時期的「向日葵」禁忌，到台中自由路的百家爭鳴",
    "lat": 24.142691,
    "lng": 120.672497,
    "category": "food",
    "region": "central",
    "link": "/food/%E5%A4%AA%E9%99%BD%E9%A4%85",
    "lang": "zh-TW",
    "desc": "1964年，台中自由路「太陽堂」餅店開幕，藝術家顏水龍創作的向日葵馬賽克壁畫竟因政治禁忌被封印25年。這塊起源於清末麥芽酥餅、由魏清海改良的圓形糕點，如何從鐵路便當的配角，變成台中最具代表性的文化符號？",
    "city": "台中"
  },
  {
    "title": "客家飲食文化",
    "lat": 24.807391,
    "lng": 120.971207,
    "category": "food",
    "region": "north",
    "link": "/food/%E5%AE%A2%E5%AE%B6%E9%A3%B2%E9%A3%9F%E6%96%87%E5%8C%96",
    "lang": "zh-TW",
    "desc": "客家人豐富多元的飲食文化，從擂茶的醇厚香味到野薑花粽的山林風情，展現客家族群勤儉持家與就地取材的生活智慧",
    "city": "新竹"
  },
  {
    "title": "牛肉麵",
    "lat": 25.029783,
    "lng": 121.561404,
    "category": "food",
    "region": "north",
    "link": "/food/%E7%89%9B%E8%82%89%E9%BA%B5",
    "lang": "zh-TW",
    "desc": "從外省移民鄉愁到台灣國民美食，牛肉麵的文化融合與全球飄香",
    "city": "台北"
  },
  {
    "title": "珍珠奶茶",
    "lat": 24.153195,
    "lng": 120.667845,
    "category": "food",
    "region": "central",
    "link": "/food/%E7%8F%8D%E7%8F%A0%E5%A5%B6%E8%8C%B6",
    "lang": "zh-TW",
    "desc": "1987 年台中的一次員工會議，一個不經意的動作，讓一杯飲料征服了全球。珍珠奶茶的起源爭議、文化政治、與一杯 500 大卡的健康辯論。",
    "city": "台中"
  },
  {
    "title": "竹筒飯：在火堆中與燃點博弈的獵人便當",
    "lat": 24.804332,
    "lng": 120.969376,
    "category": "food",
    "region": "north",
    "link": "/food/%E7%AB%B9%E7%AD%92%E9%A3%AF",
    "lang": "zh-TW",
    "desc": "竹筒飯並非單純的「容器料理」，而是一場精確的「水火博弈」。利用水在 100°C 沸騰的物理特性，讓易燃的竹管在火堆中支撐兩小時而不化為灰燼，這項源自狩獵文化的智慧，如今成為台灣原民食藝的代表。",
    "city": "新竹"
  },
  {
    "title": "粽子",
    "lat": 22.995721,
    "lng": 120.233836,
    "category": "food",
    "region": "south",
    "link": "/food/%E7%B2%BD%E5%AD%90",
    "lang": "zh-TW",
    "desc": "台灣粽子不是一種食物，是四種不同的島嶼記憶疊在一起：閩南、客家、外省、原住民，每一口咬下去的，都是來時路。",
    "city": "台南"
  },
  {
    "title": "糖蔥：藏在白色孔洞裡的「抗爭之糖」",
    "lat": 24.752,
    "lng": 121.753,
    "category": "food",
    "region": "north",
    "link": "/food/%E7%B3%96%E8%94%A5",
    "lang": "zh-TW",
    "desc": "1940年代，台灣農民為了躲避日本警察對蔗糖的壟斷，把深褐色的糖漿拉成雪白如蔥的管狀——農民的「偽裝術」，百年草根智慧的結晶。每一塊糖蔥裡精密的16個大孔與16個小孔，撐起了台灣長達一世紀的甜脆抗爭。",
    "city": "宜蘭"
  },
  {
    "title": "肉圓：從水災救命仙丹到三指痕的生存工藝",
    "lat": 24.082513,
    "lng": 120.538298,
    "category": "food",
    "region": "central",
    "link": "/food/%E8%82%89%E5%9C%93",
    "lang": "zh-TW",
    "desc": "1898 年一場毀滅性的戊戌大水災，竟催生了台灣國民小吃「肉圓」。從北斗神壇文筆生范萬居手下的救命粉丸，到南蒸北炸的味覺邊界，這不只是一場美味的演化，更是台灣人在匱乏中求生的韌性記憶。",
    "city": "彰化"
  },
  {
    "title": "臭豆腐：在逐臭與尋香之間，台灣人的感官極限運動",
    "lat": 23.992,
    "lng": 121.602,
    "category": "food",
    "region": "east",
    "link": "/food/%E8%87%AD%E8%B1%86%E8%85%90",
    "lang": "zh-TW",
    "desc": "從 1950 年代的街頭老兵手藝到登入國宴的「臭豆腐神殿」，這塊發酵豆腐承載了台灣半世紀的韌性。本文解析臭滷水背後的活菌策展，以及深坑焦香與玉里三道油溫的風味秘密。",
    "city": "花蓮"
  },
  {
    "title": "鳳梨酥：從選舉招待點心到年產值 250 億的台灣「金磚」",
    "lat": 25.026639,
    "lng": 121.569226,
    "category": "food",
    "region": "north",
    "link": "/food/%E9%B3%B3%E6%A2%A8%E9%85%A5",
    "lang": "zh-TW",
    "desc": "1945 年，台中顏新發餅舖將傳統龍鳳餅改良為小巧鳳梨酥。從 1970 年代外銷萎縮下的冬瓜餡轉型，到 2009 年微熱山丘重拾土鳳梨的酸甜本色，這塊小小的「金磚」八十年裡始終跟台灣農業命運交織，如今年產值已突破 250 億新台幣，成為外籍旅客心中最具代表性的台灣味。",
    "city": "台北"
  },
  {
    "title": "在搖晃的島嶼上，他們蓋了一座能飛的塔",
    "lat": 25.026393,
    "lng": 121.559943,
    "category": "geography",
    "region": "north",
    "link": "/geography/%E5%8F%B0%E5%8C%97101",
    "lang": "zh-TW",
    "desc": "距離活動斷層僅 200 公尺，台灣人偏要在最不穩定的土地上建出世界最高樓——然後有個瘋子花 91 分鐘徒手爬了上去。",
    "city": "台北"
  },
  {
    "title": "台灣五大地形與地理結構：從山脈到平原的島嶼風貌",
    "lat": 23.465576,
    "lng": 120.958104,
    "category": "geography",
    "region": "central",
    "link": "/geography/%E5%8F%B0%E7%81%A3%E4%BA%94%E5%A4%A7%E5%9C%B0%E5%BD%A2%E8%88%87%E5%9C%B0%E7%90%86%E7%B5%90%E6%A7%8B",
    "lang": "zh-TW",
    "desc": "探索台灣獨特的地理結構，從中央山脈到西部平原，認識這座島嶼的地形多樣性",
    "city": "南投"
  },
  {
    "title": "台灣國家風景區系統",
    "lat": 23.863,
    "lng": 120.917,
    "category": "geography",
    "region": "central",
    "link": "/geography/%E5%8F%B0%E7%81%A3%E5%9C%8B%E5%AE%B6%E9%A2%A8%E6%99%AF%E5%8D%80%E7%B3%BB%E7%B5%B1",
    "lang": "zh-TW",
    "desc": "一個「國家級」標籤下的觀光優先實驗：13處風景區如何在保育與開發間走鋼索",
    "city": "南投"
  },
  {
    "title": "台灣地圖怎麼讀：從番薯到衛星的四百年",
    "lat": 24.449,
    "lng": 118.377,
    "category": "geography",
    "region": "islands",
    "link": "/geography/%E5%8F%B0%E7%81%A3%E5%9C%B0%E5%9C%96%E6%80%8E%E9%BA%BC%E8%AE%80",
    "lang": "zh-TW",
    "desc": "1554 年，一個葡萄牙製圖師在八張羊皮上畫出了一座叫「I. Fremosa」的模糊島嶼。他從沒踏上過這座島。四百七十年後，Google Maps 顯示的台灣長什麼樣，取決於你人在哪個國家——這不是技術問題，是政治。",
    "city": "金門"
  },
  {
    "title": "台灣島嶼地理特色與形成",
    "lat": 23.517705,
    "lng": 120.692651,
    "category": "geography",
    "region": "south",
    "link": "/geography/%E5%8F%B0%E7%81%A3%E5%B3%B6%E5%B6%BC%E5%9C%B0%E7%90%86%E7%89%B9%E8%89%B2%E8%88%87%E5%BD%A2%E6%88%90",
    "lang": "zh-TW",
    "desc": "探索台灣獨特的島嶼地理特色，從板塊運動到地形結構，了解福爾摩沙島的自然奧秘",
    "city": "嘉義"
  },
  {
    "title": "台灣板塊運動與地震活動",
    "lat": 25.040398,
    "lng": 121.5588,
    "category": "geography",
    "region": "north",
    "link": "/geography/%E5%8F%B0%E7%81%A3%E6%9D%BF%E5%A1%8A%E9%81%8B%E5%8B%95%E8%88%87%E5%9C%B0%E9%9C%87%E6%B4%BB%E5%8B%95",
    "lang": "zh-TW",
    "desc": "探討台灣位於歐亞板塊與菲律賓海板塊交界的地質特性，以及造成頻繁地震活動的原因",
    "city": "台北"
  },
  {
    "title": "台灣水庫與水資源管理",
    "lat": 25.027478,
    "lng": 121.572214,
    "category": "geography",
    "region": "north",
    "link": "/geography/%E5%8F%B0%E7%81%A3%E6%B0%B4%E5%BA%AB%E8%88%87%E6%B0%B4%E8%B3%87%E6%BA%90%E7%AE%A1%E7%90%86",
    "lang": "zh-TW",
    "desc": "從缺水危機到水庫淤積，台灣水資源的挑戰與南北分配不均的困境",
    "city": "台北"
  },
  {
    "title": "台灣河川系統與水文特色：短急流與季節變遷的水文地理",
    "lat": 25.17,
    "lng": 121.44,
    "category": "geography",
    "region": "north",
    "link": "/geography/%E5%8F%B0%E7%81%A3%E6%B2%B3%E5%B7%9D%E7%B3%BB%E7%B5%B1%E8%88%87%E6%B0%B4%E6%96%87%E7%89%B9%E8%89%B2",
    "lang": "zh-TW",
    "desc": "探索台灣獨特的河川系統，從濁水溪到高屏溪，了解島嶼地形如何塑造台灣的水文特色",
    "city": "新北"
  },
  {
    "title": "台灣海岸地形與海洋地景",
    "lat": 23.463419,
    "lng": 120.960061,
    "category": "geography",
    "region": "central",
    "link": "/geography/%E5%8F%B0%E7%81%A3%E6%B5%B7%E5%B2%B8%E5%9C%B0%E5%BD%A2%E8%88%87%E6%B5%B7%E6%B4%8B%E5%9C%B0%E6%99%AF",
    "lang": "zh-TW",
    "desc": "在地球上，很少有地方能讓你從近4,000公尺的山頂出發，不到150公里就墜入7,500公尺深的海溝。台灣可以。這座島嶼的海岸線，是一場仍在進行的車禍現場——美到令人窒息。",
    "city": "南投"
  },
  {
    "title": "台灣溫泉地景",
    "lat": 22.695,
    "lng": 121.032,
    "category": "geography",
    "region": "east",
    "link": "/geography/%E5%8F%B0%E7%81%A3%E6%BA%AB%E6%B3%89%E5%9C%B0%E6%99%AF",
    "lang": "zh-TW",
    "desc": "從『女巫湯』到全球前15溫泉王國，板塊碰撞如何煮出這座島的療癒密碼",
    "city": "台東"
  },
  {
    "title": "台灣生態多樣性熱點",
    "lat": 23.477094,
    "lng": 120.964831,
    "category": "geography",
    "region": "central",
    "link": "/geography/%E5%8F%B0%E7%81%A3%E7%94%9F%E6%85%8B%E5%A4%9A%E6%A8%A3%E6%80%A7%E7%86%B1%E9%BB%9E",
    "lang": "zh-TW",
    "desc": "3.6 萬平方公里島嶼擠下 5.9 萬種生物，密度是全球平均值的 100 倍",
    "city": "南投"
  },
  {
    "title": "台灣行政區劃：從「地方會議」到「五都」的權力拼圖",
    "lat": 23.480693,
    "lng": 120.452006,
    "category": "geography",
    "region": "south",
    "link": "/geography/%E5%8F%B0%E7%81%A3%E8%A1%8C%E6%94%BF%E5%8D%80%E5%8A%83",
    "lang": "zh-TW",
    "desc": "台灣行政區劃不只是地圖上的線條，更是一場跨越四百年的權力實驗。從荷西時期的部落議會，到日治時期的「五州三廳」雅化運動，再到戰後差點出現的「爽文市」，每一道邊界背後都藏著統治意志與地方認同的拉扯。",
    "city": "嘉義"
  },
  {
    "title": "台灣農業地景與產業分布",
    "lat": 24.085745,
    "lng": 120.536283,
    "category": "geography",
    "region": "central",
    "link": "/geography/%E5%8F%B0%E7%81%A3%E8%BE%B2%E6%A5%AD%E5%9C%B0%E6%99%AF%E8%88%87%E7%94%A2%E6%A5%AD%E5%88%86%E5%B8%83",
    "lang": "zh-TW",
    "desc": "從北到南的農業地景變化，彰顯台灣從「台灣穀倉」到「精緻農業」的轉型之路",
    "city": "彰化"
  },
  {
    "title": "台灣都市發展與城鄉差距",
    "lat": 25.03123,
    "lng": 121.572911,
    "category": "geography",
    "region": "north",
    "link": "/geography/%E5%8F%B0%E7%81%A3%E9%83%BD%E5%B8%82%E7%99%BC%E5%B1%95%E8%88%87%E5%9F%8E%E9%84%89%E5%B7%AE%E8%B7%9D",
    "lang": "zh-TW",
    "desc": "70年從農業島變都市島，六都集中7成人口的光與影：繁榮台中vs凋零雲林的殘酷對比",
    "city": "台北"
  },
  {
    "title": "地形與地質",
    "lat": 23.475611,
    "lng": 120.964565,
    "category": "geography",
    "region": "central",
    "link": "/geography/%E5%9C%B0%E5%BD%A2%E8%88%87%E5%9C%B0%E8%B3%AA",
    "lang": "zh-TW",
    "desc": "600萬年的島嶼，藏著2億年的古老記憶 — 全球最年輕造山帶與最劇烈板塊碰撞的奇蹟",
    "city": "南投"
  },
  {
    "title": "城市特色與區域文化",
    "lat": 25.027544,
    "lng": 121.564124,
    "category": "geography",
    "region": "north",
    "link": "/geography/%E5%9F%8E%E5%B8%82%E7%89%B9%E8%89%B2%E8%88%87%E5%8D%80%E5%9F%9F%E6%96%87%E5%8C%96",
    "lang": "zh-TW",
    "desc": "從台北的國際都會到台南的古都風情，台灣各城市如何形塑獨特的地方認同",
    "city": "台北"
  },
  {
    "title": "台灣氣候",
    "lat": 23.502955,
    "lng": 120.695674,
    "category": "geography",
    "region": "south",
    "link": "/geography/%E6%B0%A3%E5%80%99",
    "lang": "zh-TW",
    "desc": "年降雨量是全球平均2.5倍，卻名列全球前20缺水國——台灣的氣候從來不是你想的那樣",
    "city": "嘉義"
  },
  {
    "title": "清水斷崖：板塊碰撞下的絕美傷痕與生命韌性",
    "lat": 24.158,
    "lng": 121.621,
    "category": "geography",
    "region": "east",
    "link": "/geography/%E6%B8%85%E6%B0%B4%E6%96%B7%E5%B4%96",
    "lang": "zh-TW",
    "desc": "1874年，清朝羅大春率軍開鑿蘇花古道，開啟了這段東海岸的險峻之路。清水斷崖，這座由大理岩與片麻岩構成的垂直峭壁，不僅是台灣東部地質演化的縮影，更是特有植物與海洋文學的靈感泉源，同時也面臨著環境與安全的雙重挑戰。",
    "city": "花蓮"
  },
  {
    "title": "野柳：在魔鬼岬角上，一場與時間賽跑的「女王」加冕與謝幕",
    "lat": 25.206,
    "lng": 121.691,
    "category": "geography",
    "region": "north",
    "link": "/geography/%E9%87%8E%E6%9F%B3",
    "lang": "zh-TW",
    "desc": "1962 年一次岩石斷裂意外讓野柳女王頭「加冕」，但這座世界級地景正以每年 2 公分的速度消逝。從西班牙人眼中的「魔鬼岬角」到全民守護的文化地標，野柳的故事不只是地質奇觀，更是台灣人如何在自然律法與情感留戀之間，學會放手的過程。",
    "city": "新北"
  },
  {
    "title": "離島與海洋文化：從石滬密度世界第一到飛魚季生態法律",
    "lat": 23.57641,
    "lng": 119.580419,
    "category": "geography",
    "region": "islands",
    "link": "/geography/%E9%9B%A2%E5%B3%B6%E8%88%87%E6%B5%B7%E6%B4%8B%E6%96%87%E5%8C%96",
    "lang": "zh-TW",
    "desc": "全世界石滬不到600座，澎湖就有574座。一個專門抓飛魚的島嶼民族，把禁忌變成了最精密的海洋資源管理系統",
    "city": "澎湖"
  },
  {
    "title": "19 世紀的樟腦戰爭：世界要的香氣，藏在原住民的山",
    "lat": 23.002573,
    "lng": 120.160002,
    "category": "history",
    "region": "south",
    "link": "/history/19%E4%B8%96%E7%B4%80%E7%9A%84%E6%A8%9F%E8%85%A6%E6%88%B0%E7%88%AD",
    "lang": "zh-TW",
    "desc": "1864 年史溫侯在淡水寫下三個數字：6、16、28。一擔樟腦從原產地走到香港，價格翻了將近五倍。中間的差價，是道台的口袋——和原住民的山。",
    "city": "台南"
  },
  {
    "title": "三個外國人看乙未：攝影師的相冊、記者的筆記、牧師的日記",
    "lat": 22.991673,
    "lng": 120.232399,
    "category": "history",
    "region": "south",
    "link": "/history/%E4%B8%89%E5%80%8B%E5%A4%96%E5%9C%8B%E4%BA%BA%E7%9C%8B%E4%B9%99%E6%9C%AA",
    "lang": "zh-TW",
    "desc": "1895年乙未之役，三個外國人留下了這場戰爭最重要的外語目擊文獻——日本攝影師遠藤誠的勝利相冊、美國記者達飛聲的隨軍筆記、日本牧師細川瀏的渡台日記。問題不是他們看到了什麼，而是他們為誰而看。",
    "city": "台南"
  },
  {
    "title": "中正紀念堂",
    "lat": 25.029703,
    "lng": 121.526964,
    "category": "history",
    "region": "north",
    "link": "/history/%E4%B8%AD%E6%AD%A3%E7%B4%80%E5%BF%B5%E5%A0%82",
    "lang": "zh-TW",
    "desc": "它是台北市中心最巨大的政治圖騰，也是最民主的練舞場。從威權的聖殿到轉型正義的暴風眼，這座建築紀錄了台灣靈魂最劇烈的震盪。",
    "city": "台北"
  },
  {
    "title": "乙未之役：臺灣民主國的 148 天",
    "lat": 25.025535,
    "lng": 121.559369,
    "category": "history",
    "region": "north",
    "link": "/history/%E4%B9%99%E6%9C%AA%E4%B9%8B%E5%BD%B9",
    "lang": "zh-TW",
    "desc": "1895年，清廷把台灣割給日本。島上的官員宣布建立亞洲第一個共和國，但總統十天就跑了，詩人四天就走了。真正留下來打仗的，是一個19歲的客家少年和他散盡家產召來的民兵。148天後，民主國消失了，日本統治開始了。",
    "city": "台北"
  },
  {
    "title": "二二八事件",
    "lat": 22.994249,
    "lng": 120.222334,
    "category": "history",
    "region": "south",
    "link": "/history/%E4%BA%8C%E4%BA%8C%E5%85%AB%E4%BA%8B%E4%BB%B6",
    "lang": "zh-TW",
    "desc": "一個寡婦的私菸攤，如何點燃一座島嶼三十八年的沉默——1947年改變台灣命運的十天，以及七十八年後仍在癒合的傷",
    "city": "台南"
  },
  {
    "title": "台海危機與兩岸關係發展",
    "lat": 24.451368,
    "lng": 118.378038,
    "category": "history",
    "region": "islands",
    "link": "/history/%E5%8F%B0%E6%B5%B7%E5%8D%B1%E6%A9%9F%E8%88%87%E5%85%A9%E5%B2%B8%E9%97%9C%E4%BF%82%E7%99%BC%E5%B1%95",
    "lang": "zh-TW",
    "desc": "從金門阿嬤的砲彈記憶到台北年輕人的佛系日常，七十年台海危機如何塑造了台灣人的集體心理",
    "city": "金門"
  },
  {
    "title": "台灣原住民族歷史與正名運動",
    "lat": 23.514761,
    "lng": 120.693564,
    "category": "history",
    "region": "south",
    "link": "/history/%E5%8F%B0%E7%81%A3%E5%8E%9F%E4%BD%8F%E6%B0%91%E6%97%8F%E6%AD%B7%E5%8F%B2%E8%88%87%E6%AD%A3%E5%90%8D%E9%81%8B%E5%8B%95",
    "lang": "zh-TW",
    "desc": "1987年，一個19歲的鄒族青年在台北刑場被槍決。他的死，點燃了正名運動最初的火。",
    "city": "嘉義"
  },
  {
    "title": "台灣森林開發史：從資源榨取到國土保安的世紀轉向",
    "lat": 23.512044,
    "lng": 120.704006,
    "category": "history",
    "region": "south",
    "link": "/history/%E5%8F%B0%E7%81%A3%E6%A3%AE%E6%9E%97%E9%96%8B%E7%99%BC%E5%8F%B2",
    "lang": "zh-TW",
    "desc": "從清領時期的樟腦煙雲，到日治時期的鋼軌鳴響，再到戰後震撼山壑的大伐木時代。本文梳理台灣森林開發政策背後的全球地緣政治邏輯，並以資料釐清百年林業的真實真相。",
    "city": "嘉義"
  },
  {
    "title": "台灣民主轉型——威權自掘的墳墓",
    "lat": 22.634081,
    "lng": 120.308876,
    "category": "history",
    "region": "south",
    "link": "/history/%E5%8F%B0%E7%81%A3%E6%B0%91%E4%B8%BB%E8%BD%89%E5%9E%8B",
    "lang": "zh-TW",
    "desc": "每一次鎮壓都製造更多反抗者。從二二八到太陽花，一座島嶼如何讓獨裁體制親手培養出埋葬自己的力量。",
    "city": "高雄"
  },
  {
    "title": "台灣海洋貿易史",
    "lat": 22.996267,
    "lng": 120.163897,
    "category": "history",
    "region": "south",
    "link": "/history/%E5%8F%B0%E7%81%A3%E6%B5%B7%E6%B4%8B%E8%B2%BF%E6%98%93%E5%8F%B2",
    "lang": "zh-TW",
    "desc": "大航海時代的台灣，從國際貿易中心到海盜王國的興衰傳奇",
    "city": "台南"
  },
  {
    "title": "台灣白色恐怖",
    "lat": 22.656544,
    "lng": 121.489055,
    "category": "history",
    "region": "east",
    "link": "/history/%E5%8F%B0%E7%81%A3%E7%99%BD%E8%89%B2%E6%81%90%E6%80%96",
    "lang": "zh-TW",
    "desc": "38 年戒嚴不是靠幾千個特務維持的，是靠全台灣兩百萬個家庭必須互相擔保才能上班、入學、結婚的「連坐保證」制度維持的。陳智雄、施水環、高一生、柏楊——四個名字，四種被抓的理由，一個共同的機器。",
    "city": "台東"
  },
  {
    "title": "台灣眷村歷史",
    "lat": 25.030947,
    "lng": 121.563949,
    "category": "history",
    "region": "north",
    "link": "/history/%E5%8F%B0%E7%81%A3%E7%9C%B7%E6%9D%91%E6%AD%B7%E5%8F%B2",
    "lang": "zh-TW",
    "desc": "從緬甸孤軍到竹籬笆王國，120萬大遷徙如何重新定義「家」",
    "city": "台北"
  },
  {
    "title": "台灣轉型正義",
    "lat": 22.666042,
    "lng": 121.50341,
    "category": "history",
    "region": "east",
    "link": "/history/%E5%8F%B0%E7%81%A3%E8%BD%89%E5%9E%8B%E6%AD%A3%E7%BE%A9",
    "lang": "zh-TW",
    "desc": "台灣撤銷了近六千份威權時期的有罪判決，卻幾乎沒有一個加害者被追究責任——這個落差，比白色恐怖本身更難解釋。",
    "city": "台東"
  },
  {
    "title": "台灣選舉與政黨政治",
    "lat": 25.025373,
    "lng": 121.559715,
    "category": "history",
    "region": "north",
    "link": "/history/%E5%8F%B0%E7%81%A3%E9%81%B8%E8%88%89%E8%88%87%E6%94%BF%E9%BB%A8%E6%94%BF%E6%B2%BB",
    "lang": "zh-TW",
    "desc": "從中壢事件的火光到817萬張選票，台灣如何用半個世紀把投票從戒嚴工具變成全民信仰",
    "city": "台北"
  },
  {
    "title": "台灣鐵道史",
    "lat": 24.153265,
    "lng": 120.66872,
    "category": "history",
    "region": "central",
    "link": "/history/%E5%8F%B0%E7%81%A3%E9%90%B5%E9%81%93%E5%8F%B2",
    "lang": "zh-TW",
    "desc": "一條被日本人罵是「肺病鐵道」的爛路，如何在一百多年間變成每天載運二十萬人的高速動脈",
    "city": "台中"
  },
  {
    "title": "日治時期",
    "lat": 22.619056,
    "lng": 120.303222,
    "category": "history",
    "region": "south",
    "link": "/history/%E6%97%A5%E6%B2%BB%E6%99%82%E6%9C%9F",
    "lang": "zh-TW",
    "desc": "1895-1945年日本統治台灣50年，帶來全面現代化建設與制度化管理，同時實施同化政策，深刻影響台灣社會發展",
    "city": "高雄"
  },
  {
    "title": "日治時期臺灣社會運動",
    "lat": 25.059433,
    "lng": 121.506975,
    "category": "history",
    "region": "north",
    "link": "/history/%E6%97%A5%E6%B2%BB%E6%99%82%E6%9C%9F%E8%87%BA%E7%81%A3%E7%A4%BE%E6%9C%83%E9%81%8B%E5%8B%95",
    "lang": "zh-TW",
    "desc": "帝國警察的監控文件裡，藏著一張台灣人如何反抗的地圖。1920年代，議會請願、農民組合、地下黨，三條路線同時燃起，卻燒向彼此",
    "city": "台北"
  },
  {
    "title": "民主化",
    "lat": 22.623962,
    "lng": 120.296971,
    "category": "history",
    "region": "south",
    "link": "/history/%E6%B0%91%E4%B8%BB%E5%8C%96",
    "lang": "zh-TW",
    "desc": "1980年3月18日，高雄軍事法庭上，施明德放棄了六萬字答辯書，改口要求法官判他死刑。同一場審判中，替被告辯護的年輕律師陳水扁、謝長廷、蘇貞昌，二十年後全部當上了總統或行政院長。一場本該殺雞儆猴的審判，意外製造了台灣下一個世代的政治領袖。",
    "city": "高雄"
  },
  {
    "title": "淡江中學：一座校園，如何濃縮台灣近代教育史",
    "lat": 25.173166,
    "lng": 121.439255,
    "category": "history",
    "region": "north",
    "link": "/history/%E6%B7%A1%E6%B1%9F%E4%B8%AD%E5%AD%B8",
    "lang": "zh-TW",
    "desc": "淡江中學最值得寫的，不是它夠老，而是它把宣教、女子教育與殖民體制的拉扯，都留在同一座校園裡。",
    "city": "新北"
  },
  {
    "title": "清治時期",
    "lat": 25.172877,
    "lng": 121.434619,
    "category": "history",
    "region": "north",
    "link": "/history/%E6%B8%85%E6%B2%BB%E6%99%82%E6%9C%9F",
    "lang": "zh-TW",
    "desc": "1683-1895年清朝統治台灣約212年，從消極治理到積極建設，奠定現代台灣行政區劃與漢人社會基礎",
    "city": "新北"
  },
  {
    "title": "清法戰爭：基隆與淡水的八個月",
    "lat": 25.172972,
    "lng": 121.441268,
    "category": "history",
    "region": "north",
    "link": "/history/%E6%B8%85%E6%B3%95%E6%88%B0%E7%88%AD",
    "lang": "zh-TW",
    "desc": "1884年秋天，法國艦隊砲轟基隆港，兩千名海軍陸戰隊登陸，佔領了港口。但他們花了七個月，始終走不出基隆的山嶺。同一週，600名法軍水兵在淡水登陸，兩小時內被趕回海上。戰爭結束時，法國拿到了越南，放棄了台灣。清廷差點輸掉，卻因此讓台灣從附屬變成一個省。",
    "city": "新北"
  },
  {
    "title": "擎天崗的19頭牛：從源興牛到台南牛肉湯，一座島嶼的肉牛突圍",
    "lat": 22.99356,
    "lng": 120.232371,
    "category": "history",
    "region": "south",
    "link": "/history/%E6%BA%90%E8%88%88%E7%89%9B%E8%88%87%E7%89%9B%E8%82%89%E6%B9%AF%E7%9A%84%E6%AD%B7%E5%8F%B2",
    "lang": "zh-TW",
    "desc": "台灣牛肉自給率僅4.6%，卻在2024年誕生全國第一個民間認證牛品種。源興牛的故事，是一個94歲的老人、19頭野生黑牛、和一碗凌晨的溫體湯共同寫成的產業突圍劇本。",
    "city": "台南"
  },
  {
    "title": "羅發號事件：181人打不下的仗，卓杞篤用45分鐘談完",
    "lat": 22.006,
    "lng": 120.745,
    "category": "history",
    "region": "south",
    "link": "/history/%E7%BE%85%E7%99%BC%E8%99%9F%E4%BA%8B%E4%BB%B6%E8%88%87%E5%8D%93%E6%9D%9E%E7%AF%A4",
    "lang": "zh-TW",
    "desc": "1867年美軍181人在恆春半島叢林中被排灣族擊退，帶隊指揮官陣亡。三個月後，瑯嶠十八社大頭目卓杞篤坐下來，用45分鐘談成了南岬之盟。這份協議讓族人暫時免於滅族，但締約的另一方李仙得，七年後帶著同一份情報跳槽日本帝國，協助策劃了1874年的出兵。",
    "city": "屏東"
  },
  {
    "title": "美麗島事件",
    "lat": 22.633299,
    "lng": 120.30457,
    "category": "history",
    "region": "south",
    "link": "/history/%E7%BE%8E%E9%BA%97%E5%B3%B6%E4%BA%8B%E4%BB%B6",
    "lang": "zh-TW",
    "desc": "一場本應讓反對運動徹底崩潰的軍事審判，因公開轉播意外成為台灣民主最有力的宣傳片。",
    "city": "高雄"
  },
  {
    "title": "荷西明鄭時期",
    "lat": 23.006087,
    "lng": 120.229626,
    "category": "history",
    "region": "south",
    "link": "/history/%E8%8D%B7%E8%A5%BF%E6%98%8E%E9%84%AD%E6%99%82%E6%9C%9F",
    "lang": "zh-TW",
    "desc": "1624 年荷蘭人在臺南建立熱蘭遮城，到 1683 年施琅登陸澎湖為止——臺灣被寫進世界貿易地圖的六十年，和四個政權輪替的故事",
    "city": "台南"
  },
  {
    "title": "阿里山：帝國的林場與高一生的山",
    "lat": 23.50875,
    "lng": 120.701548,
    "category": "history",
    "region": "south",
    "link": "/history/%E9%98%BF%E9%87%8C%E5%B1%B1%EF%BC%9A%E5%B8%9D%E5%9C%8B%E7%9A%84%E6%9E%97%E5%A0%B4%E8%88%87%E9%AB%98%E4%B8%80%E7%94%9F%E7%9A%84%E5%B1%B1",
    "lang": "zh-TW",
    "desc": "1954 年 4 月 17 日，鄒族菁英高一生在安坑刑場被槍決。阿里山這座被稱為觀光勝地的山脈，其實是一座被兩個帝國先後改寫過的記憶之山。",
    "city": "嘉義"
  },
  {
    "title": "台灣 YouBike 文化與城市微交通革命",
    "lat": 25.026149,
    "lng": 121.560209,
    "category": "lifestyle",
    "region": "north",
    "link": "/lifestyle/%E5%8F%B0%E7%81%A3YouBike%E6%96%87%E5%8C%96%E8%88%87%E5%9F%8E%E5%B8%82%E5%BE%AE%E4%BA%A4%E9%80%9A%E9%9D%A9%E5%91%BD",
    "lang": "zh-TW",
    "desc": "從「最後一哩」到日常基礎設施，YouBike 如何用小額費率、密集站點與即時調度，改變台灣城市的移動習慣與時間感。",
    "city": "台北"
  },
  {
    "title": "台灣交通系統：一座島嶼怎麼把自己壓縮成 90 分鐘",
    "lat": 25.03833,
    "lng": 121.560522,
    "category": "lifestyle",
    "region": "north",
    "link": "/lifestyle/%E5%8F%B0%E7%81%A3%E4%BA%A4%E9%80%9A%E7%B3%BB%E7%B5%B1",
    "lang": "zh-TW",
    "desc": "1946 年台灣一夜之間從左駕變右駕。中央山脈縱貫南北 273 公里，把 36,000 平方公里的島切成東西兩半。六十年後高鐵把 394 公里壓成 90 分鐘，雪山隧道把宜蘭從 2 小時車程縮成 40 分鐘。再十年後，一千四百萬輛機車塞滿了每一個路口。這座島嶼的交通故事，就是它的身份故事。",
    "city": "台北"
  },
  {
    "title": "台灣便利商店文化",
    "lat": 25.036297,
    "lng": 121.571003,
    "category": "lifestyle",
    "region": "north",
    "link": "/lifestyle/%E5%8F%B0%E7%81%A3%E4%BE%BF%E5%88%A9%E5%95%86%E5%BA%97%E6%96%87%E5%8C%96",
    "lang": "zh-TW",
    "desc": "密度世界第一的便利商店王國，7-11與全家的在地化創新，重新定義現代生活方式",
    "city": "台北"
  },
  {
    "title": "台灣公園與日常休閒",
    "lat": 25.038664,
    "lng": 121.566677,
    "category": "lifestyle",
    "region": "north",
    "link": "/lifestyle/%E5%8F%B0%E7%81%A3%E5%85%AC%E5%9C%92%E8%88%87%E6%97%A5%E5%B8%B8%E4%BC%91%E9%96%92",
    "lang": "zh-TW",
    "desc": "從清晨太極到夜間散步——台灣公園作為跨世代社交場域的文化觀察",
    "city": "台北"
  },
  {
    "title": "台灣咖啡文化：便利商店一年賣六億杯的島嶼",
    "lat": 23.503316,
    "lng": 120.698433,
    "category": "lifestyle",
    "region": "south",
    "link": "/lifestyle/%E5%8F%B0%E7%81%A3%E5%92%96%E5%95%A1%E6%96%87%E5%8C%96",
    "lang": "zh-TW",
    "desc": "日治時期從雲林古坑種下的第一棵咖啡樹，一百年後長成了每五十公尺一家咖啡廳的都市風景。路易莎開到六百家，超過星巴克。阿里山咖啡打進國際賽。台灣人的咖啡，從來不只是咖啡。",
    "city": "嘉義"
  },
  {
    "title": "追垃圾車的島：台灣從垃圾危機到回收奇蹟",
    "lat": 25.037465,
    "lng": 121.56204,
    "category": "lifestyle",
    "region": "north",
    "link": "/lifestyle/%E5%8F%B0%E7%81%A3%E5%9B%9E%E6%94%B6%E8%88%87%E8%B3%87%E6%BA%90%E5%BE%AA%E7%92%B0%E6%96%87%E5%8C%96",
    "lang": "zh-TW",
    "desc": "一個1990年代有400座快滿的掩埋場、被國際媒體稱為「垃圾島」的地方，用貝多芬的音樂讓2,300萬人每天追垃圾車，30年後資源回收率超越多數歐洲國家",
    "city": "台北"
  },
  {
    "title": "當古典音樂變成垃圾車廣告歌：台灣最浪漫的環保革命",
    "lat": 25.034784,
    "lng": 121.568297,
    "category": "lifestyle",
    "region": "north",
    "link": "/lifestyle/%E5%8F%B0%E7%81%A3%E5%9E%83%E5%9C%BE%E8%BB%8A%E9%9F%B3%E6%A8%82",
    "lang": "zh-TW",
    "desc": "外國人聽到垃圾車播貝多芬的震驚表情，背後是台灣從「垃圾島」蛻變成環保模範的神奇故事",
    "city": "台北"
  },
  {
    "title": "台灣捷運發展史：一部用血與錢寫成的城市進化論",
    "lat": 25.026521,
    "lng": 121.572216,
    "category": "lifestyle",
    "region": "north",
    "link": "/lifestyle/%E5%8F%B0%E7%81%A3%E6%8D%B7%E9%81%8B%E7%99%BC%E5%B1%95%E5%8F%B2",
    "lang": "zh-TW",
    "desc": "209 噸鋼梁從天而降奪走 4 條人命，16.4 億賠款，台北捷運本業至今仍在虧錢——全台捷運背後的真實代價",
    "city": "台北"
  },
  {
    "title": "台灣教育制度：從聯考地獄到多元迷宮的島嶼實驗",
    "lat": 25.038485,
    "lng": 121.557239,
    "category": "lifestyle",
    "region": "north",
    "link": "/lifestyle/%E5%8F%B0%E7%81%A3%E6%95%99%E8%82%B2%E5%88%B6%E5%BA%A6",
    "lang": "zh-TW",
    "desc": "台灣花30年想破除聯考制度，結果最新的分科測驗讓重考班招生暴增一倍。一個島嶼如何在升學壓力與教育公平之間，反覆進行社會實驗？",
    "city": "台北"
  },
  {
    "title": "台灣機車文化",
    "lat": 25.038528,
    "lng": 121.564886,
    "category": "lifestyle",
    "region": "north",
    "link": "/lifestyle/%E5%8F%B0%E7%81%A3%E6%A9%9F%E8%BB%8A%E6%96%87%E5%8C%96",
    "lang": "zh-TW",
    "desc": "全球機車密度最高的國家不是因為愛騎車——是因為沒有別的選擇。現在它意外成了電動二輪的全球實驗場。",
    "city": "台北"
  },
  {
    "title": "台灣騎樓文化與街景",
    "lat": 25.039867,
    "lng": 121.572171,
    "category": "lifestyle",
    "region": "north",
    "link": "/lifestyle/%E5%8F%B0%E7%81%A3%E9%A8%8E%E6%A8%93%E6%96%87%E5%8C%96%E8%88%87%E8%A1%97%E6%99%AF",
    "lang": "zh-TW",
    "desc": "遮風避雨的生活廊道，機車、攤販與人情味交織的台灣街頭記憶",
    "city": "台北"
  },
  {
    "title": "台灣高鐵：從「零政府出資」到「國有民營」，20 年縮短 90 分鐘的代價",
    "lat": 25.025312,
    "lng": 121.557448,
    "category": "lifestyle",
    "region": "north",
    "link": "/lifestyle/%E5%8F%B0%E7%81%A3%E9%AB%98%E9%90%B5",
    "lang": "zh-TW",
    "desc": "1998 年殷琪簽下這份 BOT，承諾政府零出資。2015 年立法院 18 比 0 否決財改案，葉匡時當晚請辭。十七年間，台灣如何用 5,133 億與一場歐日技術戰爭，把南北距離壓縮到 90 分鐘？",
    "city": "台北"
  },
  {
    "title": "吉祥物：從黑熊迷戀到諧音救贖的文化策展",
    "lat": 22.991041,
    "lng": 120.22031,
    "category": "lifestyle",
    "region": "south",
    "link": "/lifestyle/%E5%90%89%E7%A5%A5%E7%89%A9",
    "lang": "zh-TW",
    "desc": "2013 年「喔熊」誕生開啟台灣吉祥物戰國時代。從全台黑熊大亂鬥、醜到登美國脫口秀的「虱目魚小子」，到年收上億的「福利熊」與在議會備詢的「熊讚」，台灣吉祥物正從政府宣傳工具演化為具備靈魂與社會共鳴的文化符號。",
    "city": "台南"
  },
  {
    "title": "夜生活與KTV文化",
    "lat": 25.040784,
    "lng": 121.565476,
    "category": "lifestyle",
    "region": "north",
    "link": "/lifestyle/%E5%A4%9C%E7%94%9F%E6%B4%BB%E8%88%87KTV%E6%96%87%E5%8C%96",
    "lang": "zh-TW",
    "desc": "從錢櫃包廂到深夜食堂，24 小時不打烊的島嶼夜生活",
    "city": "台北"
  },
  {
    "title": "宗教與民間信仰：從恐懼管理到信仰帝國",
    "lat": 25.025998,
    "lng": 121.558086,
    "category": "lifestyle",
    "region": "north",
    "link": "/lifestyle/%E5%AE%97%E6%95%99%E8%88%87%E6%B0%91%E9%96%93%E4%BF%A1%E4%BB%B0",
    "lang": "zh-TW",
    "desc": "台灣有全球最高廟宇密度，卻也是宗教自由世界第一——這套矛盾背後隱藏17世紀軍事移民的生存智慧",
    "city": "台北"
  },
  {
    "title": "小綠人：從交通號誌到國家符號的25年傳奇",
    "lat": 25.03523,
    "lng": 121.569539,
    "category": "lifestyle",
    "region": "north",
    "link": "/lifestyle/%E5%B0%8F%E7%B6%A0%E4%BA%BA",
    "lang": "zh-TW",
    "desc": "一位東京觀光客驚訝地停下腳步，目睹台北街頭的奇蹟——會跑步的紅綠燈。25年來，這個看似平凡的小綠人，如何從松智路的一盞燈，成為讓全世界為之驚艷的台灣文化符號？",
    "city": "台北"
  },
  {
    "title": "溫泉文化",
    "lat": 22.662834,
    "lng": 121.498261,
    "category": "lifestyle",
    "region": "east",
    "link": "/lifestyle/%E6%BA%AB%E6%B3%89%E6%96%87%E5%8C%96",
    "lang": "zh-TW",
    "desc": "從軍事療養到世界三大泥泉：台灣意外成為溫泉王國的故事",
    "city": "台東"
  },
  {
    "title": "五月天",
    "lat": 25.028068,
    "lng": 121.559668,
    "category": "music",
    "region": "north",
    "link": "/music/%E4%BA%94%E6%9C%88%E5%A4%A9",
    "lang": "zh-TW",
    "desc": "1997 年，五個師大附中的高中生在野台開唱用 BBS 代號報了名。三十年後，他們在台北大巨蛋十分鐘賣掉 32 萬張票，在北京鳥巢唱了 30 場，卻也在同一個舞台上說出讓台灣人心碎的四個字。",
    "city": "台北"
  },
  {
    "title": "台灣原住民音樂傳統",
    "lat": 22.676563,
    "lng": 120.485909,
    "category": "music",
    "region": "south",
    "link": "/music/%E5%8F%B0%E7%81%A3%E5%8E%9F%E4%BD%8F%E6%B0%91%E9%9F%B3%E6%A8%82%E5%82%B3%E7%B5%B1",
    "lang": "zh-TW",
    "desc": "探索台灣 16 族原住民豐富的音樂文化，從古調吟唱到傳統樂器，見證數千年文化傳承",
    "city": "屏東"
  },
  {
    "title": "台灣國樂：中國樂器上長出來的島嶼聲音",
    "lat": 25.0358,
    "lng": 121.563314,
    "category": "music",
    "region": "north",
    "link": "/music/%E5%8F%B0%E7%81%A3%E5%9C%8B%E6%A8%82",
    "lang": "zh-TW",
    "desc": "1949 年渡海而來的二胡和琵琶，七十年後在台灣演奏布農族的八部合音。台灣國樂如何從政治正統的象徵，演化成一個跟對岸截然不同的音樂物種。",
    "city": "台北"
  },
  {
    "title": "台灣樂器製造業：從后里薩克斯風到全球音樂工廠",
    "lat": 23.870809,
    "lng": 120.920253,
    "category": "music",
    "region": "central",
    "link": "/music/%E5%8F%B0%E7%81%A3%E6%A8%82%E5%99%A8%E8%A3%BD%E9%80%A0",
    "lang": "zh-TW",
    "desc": "探索台灣樂器製造業的發展歷程，從后里薩克斯風的全球霸主地位到吉他代工王國，再到音樂盒製造的精密工藝，台灣如何從代工走向自有品牌",
    "city": "南投"
  },
  {
    "title": "台灣民歌運動",
    "lat": 25.040386,
    "lng": 121.565071,
    "category": "music",
    "region": "north",
    "link": "/music/%E5%8F%B0%E7%81%A3%E6%B0%91%E6%AD%8C%E9%81%8B%E5%8B%95",
    "lang": "zh-TW",
    "desc": "從「唱自己的歌」到改變整個華語音樂圈——1970年代那場屬於年輕人的文化革命",
    "city": "台北"
  },
  {
    "title": "台灣獨立音樂：一間發不出薪水的唱片行，如何替一座島嶼打開耳朵",
    "lat": 25.040436,
    "lng": 121.562337,
    "category": "music",
    "region": "north",
    "link": "/music/%E5%8F%B0%E7%81%A3%E7%8D%A8%E7%AB%8B%E9%9F%B3%E6%A8%82",
    "lang": "zh-TW",
    "desc": "從水晶唱片負債三十萬頂下來的冒險，到草東沒有派對在咖啡店賣光首刷。台灣獨立音樂 35 年不是逆襲故事，是一群人堅持讓「沒被看見的聲音被聽見」的漫長賭局",
    "city": "台北"
  },
  {
    "title": "台灣聲音地景",
    "lat": 25.034893,
    "lng": 121.559111,
    "category": "music",
    "region": "north",
    "link": "/music/%E5%8F%B0%E7%81%A3%E8%81%B2%E9%9F%B3%E5%9C%B0%E6%99%AF",
    "lang": "zh-TW",
    "desc": "從垃圾車的致愛麗絲到布農族八部合音——用耳朵認識台灣",
    "city": "台北"
  },
  {
    "title": "台灣電子音樂與派對文化：從地下 Rave 到國際舞台",
    "lat": 25.037902,
    "lng": 121.565107,
    "category": "music",
    "region": "north",
    "link": "/music/%E5%8F%B0%E7%81%A3%E9%9B%BB%E5%AD%90%E9%9F%B3%E6%A8%82%E8%88%87%E6%B4%BE%E5%B0%8D%E6%96%87%E5%8C%96",
    "lang": "zh-TW",
    "desc": "從1990年代 Rave 派對文化到 Road to Ultra 電音節，台灣電子音樂如何從地下走向主流，孕育出國際級 DJ 與獨立電子廠牌",
    "city": "台北"
  },
  {
    "title": "台灣音樂祭文化：一座島嶼為什麼需要這麼多場戶外派對",
    "lat": 21.948,
    "lng": 120.803,
    "category": "music",
    "region": "south",
    "link": "/music/%E5%8F%B0%E7%81%A3%E9%9F%B3%E6%A8%82%E7%A5%AD%E6%96%87%E5%8C%96",
    "lang": "zh-TW",
    "desc": "從 1995 年墾丁沙灘上兩個美國人架起的舞台，到每年超過 50 場遍布全島的音樂祭。台灣的音樂祭密度可能是全世界最高，而開山鼻祖不是台灣人",
    "city": "屏東"
  },
  {
    "title": "從張懸到安溥——兩個名字，同一個問題",
    "lat": 23.475508,
    "lng": 120.96452,
    "category": "music",
    "region": "central",
    "link": "/music/%E5%BC%B5%E6%87%B8%E8%88%87%E5%AE%89%E6%BA%A5",
    "lang": "zh-TW",
    "desc": "13 歲寫出〈寶貝〉，32 歲因一面旗子被中國封殺，34 歲親手殺死自己的藝名。焦安溥用兩段人生回答了一個台灣人都在問的問題：你到底站哪邊？",
    "city": "南投"
  },
  {
    "title": "滅火器——游泳池旁撿到的名字，唱了二十五年",
    "lat": 22.634474,
    "lng": 120.305009,
    "category": "music",
    "region": "south",
    "link": "/music/%E6%BB%85%E7%81%AB%E5%99%A8%E6%A8%82%E5%9C%98",
    "lang": "zh-TW",
    "desc": "2000 年三個高雄高中生在游泳池旁撿了一個滅火器當團名。二十五年後，他們用台語龐克唱出太陽花學運的時代之聲，把廠牌搬回南方，在打狗祭舞台上花七分鐘告訴全場：失望可以，但不要變成你討厭的那種人。",
    "city": "高雄"
  },
  {
    "title": "台灣原住民生態智慧與環境保育",
    "lat": 23.984362,
    "lng": 121.600934,
    "category": "nature",
    "region": "east",
    "link": "/nature/%E5%8F%B0%E7%81%A3%E5%8E%9F%E4%BD%8F%E6%B0%91%E7%94%9F%E6%85%8B%E6%99%BA%E6%85%A7%E8%88%87%E7%92%B0%E5%A2%83%E4%BF%9D%E8%82%B2",
    "lang": "zh-TW",
    "desc": "探討台灣原住民族數千年來累積的傳統生態知識，以及在現代環境保育中的重要價值與實踐方式",
    "city": "花蓮"
  },
  {
    "title": "島嶼的山海之巔：台灣國家公園的生態與地景",
    "lat": 23.468448,
    "lng": 120.951493,
    "category": "nature",
    "region": "central",
    "link": "/nature/%E5%8F%B0%E7%81%A3%E5%9C%8B%E5%AE%B6%E5%85%AC%E5%9C%92",
    "lang": "zh-TW",
    "desc": "探索台灣九座國家公園的獨特生態系統與保育價值，從亞熱帶海岸到高山雪線的完整地景",
    "city": "南投"
  },
  {
    "title": "台灣山岳與登山文化",
    "lat": 23.466219,
    "lng": 120.957666,
    "category": "nature",
    "region": "central",
    "link": "/nature/%E5%8F%B0%E7%81%A3%E5%B1%B1%E5%B2%B3%E8%88%87%E7%99%BB%E5%B1%B1%E6%96%87%E5%8C%96",
    "lang": "zh-TW",
    "desc": "268座三千公尺高山擠在一座島上，台灣人卻花了半世紀才被允許自由爬自己的山",
    "city": "南投"
  },
  {
    "title": "冰河孑遺的微笑：台灣山椒魚的百年身世與科技守護之路",
    "lat": 23.517483,
    "lng": 120.704674,
    "category": "nature",
    "region": "south",
    "link": "/nature/%E5%8F%B0%E7%81%A3%E5%B1%B1%E6%A4%92%E9%AD%9A",
    "lang": "zh-TW",
    "desc": "在台灣高山深處，五種特有種山椒魚默默承載著冰河時期的記憶。牠們是高山生態指標，也是一段百年來科學家不斷探索、正名、甚至付出生命的故事。2025 年人工孵化技術的突破，為這些「微笑的高山精靈」帶來新希望。",
    "city": "嘉義"
  },
  {
    "title": "台灣島嶼博物學：島嶼與世界的生命對話",
    "lat": 22.907,
    "lng": 121.122,
    "category": "nature",
    "region": "east",
    "link": "/nature/%E5%8F%B0%E7%81%A3%E5%B3%B6%E5%B6%BC%E5%8D%9A%E7%89%A9%E5%AD%B8",
    "lang": "zh-TW",
    "desc": "從冰河時期的陸橋遷徙到南島語族的構樹基因，台灣不僅是生物的避難所，更是演化的十字路口。透過博物學家的雙眼，重新發現這座島嶼如何與世界進行生命對話。",
    "city": "台東"
  },
  {
    "title": "台灣森林生態系",
    "lat": 23.467555,
    "lng": 120.953028,
    "category": "nature",
    "region": "central",
    "link": "/nature/%E5%8F%B0%E7%81%A3%E6%A3%AE%E6%9E%97%E7%94%9F%E6%85%8B%E7%B3%BB",
    "lang": "zh-TW",
    "desc": "一趟從海平面到玉山頂峰的垂直旅行，穿越地球上最密集的森林光譜",
    "city": "南投"
  },
  {
    "title": "台灣氣候危機與淨零轉型",
    "lat": 24.084175,
    "lng": 120.54451,
    "category": "nature",
    "region": "central",
    "link": "/nature/%E5%8F%B0%E7%81%A3%E6%B0%A3%E5%80%99%E5%8D%B1%E6%A9%9F%E8%88%87%E6%B7%A8%E9%9B%B6%E8%BD%89%E5%9E%8B",
    "lang": "zh-TW",
    "desc": "升溫速度比全球快一半、98% 能源靠進口——一座島嶼賭上 9 兆台幣重建自己的能源系統",
    "city": "彰化"
  },
  {
    "title": "台灣海洋保育：為什麼花30年建成的體系，救不了一場珊瑚白化？",
    "lat": 22.338,
    "lng": 120.373,
    "category": "nature",
    "region": "south",
    "link": "/nature/%E5%8F%B0%E7%81%A3%E6%B5%B7%E6%B4%8B%E4%BF%9D%E8%82%B2%E8%88%87%E6%8C%91%E6%88%B0",
    "lang": "zh-TW",
    "desc": "2020年，台灣海域經歷史上最大規模珊瑚白化。從小琉球到東沙環礁，連保護區內的珊瑚都在高溫中死去。這暴露了什麼問題？",
    "city": "屏東"
  },
  {
    "title": "台灣海洋污染治理與保育挑戰",
    "lat": 22.338607,
    "lng": 120.376833,
    "category": "nature",
    "region": "south",
    "link": "/nature/%E5%8F%B0%E7%81%A3%E6%B5%B7%E6%B4%8B%E6%B1%A1%E6%9F%93%E6%B2%BB%E7%90%86%E8%88%87%E4%BF%9D%E8%82%B2%E6%8C%91%E6%88%B0",
    "lang": "zh-TW",
    "desc": "面對海洋廢棄物、過度捕撈與氣候變遷，探討台灣海洋保育的現況、挑戰與創新解決方案",
    "city": "屏東"
  },
  {
    "title": "台灣海洋生態",
    "lat": 22.025297,
    "lng": 121.552726,
    "category": "nature",
    "region": "east",
    "link": "/nature/%E5%8F%B0%E7%81%A3%E6%B5%B7%E6%B4%8B%E7%94%9F%E6%85%8B",
    "lang": "zh-TW",
    "desc": "達悟族用禁忌守護的海域，如今在高溫與水下噪音中白化：當數千年生態智慧遇上現代海洋危機",
    "city": "台東"
  },
  {
    "title": "台灣海洋生態與珊瑚礁保育",
    "lat": 21.940446,
    "lng": 120.809348,
    "category": "nature",
    "region": "south",
    "link": "/nature/%E5%8F%B0%E7%81%A3%E6%B5%B7%E6%B4%8B%E7%94%9F%E6%85%8B%E8%88%87%E7%8F%8A%E7%91%9A%E7%A4%81%E4%BF%9D%E8%82%B2",
    "lang": "zh-TW",
    "desc": "台灣四面環海擁有豐富海洋生態，從珊瑚礁白化危機到鯨豚保育，探討海洋國家公園的保護成效與未來挑戰",
    "city": "屏東"
  },
  {
    "title": "台灣溫泉與地熱",
    "lat": 22.656856,
    "lng": 121.500363,
    "category": "nature",
    "region": "east",
    "link": "/nature/%E5%8F%B0%E7%81%A3%E6%BA%AB%E6%B3%89%E8%88%87%E5%9C%B0%E7%86%B1",
    "lang": "zh-TW",
    "desc": "從 30 年前失敗的地熱電廠到世界唯一北投石：一座島嶼如何把地底之火變成療癒與綠電",
    "city": "台東"
  },
  {
    "title": "台灣獼猴：在中山大學的生存博弈、母系權力與萬年定居者的真相",
    "lat": 22.621109,
    "lng": 120.300853,
    "category": "nature",
    "region": "south",
    "link": "/nature/%E5%8F%B0%E7%81%A3%E7%8D%BC%E7%8C%B4",
    "lang": "zh-TW",
    "desc": "從中山大學學生「持槍取外送」的荒謬日常，到 1862 年史溫侯首次向西方介紹這座島嶼的靈長類，台灣獼猴常被冠以「流氓」之名。背後是一個萬年前就定居柴山的嚴謹母系社會，在校園擴張與人類餵食下，被迫演化出的生存文化。",
    "city": "高雄"
  },
  {
    "title": "台灣石虎保育",
    "lat": 24.568786,
    "lng": 120.813554,
    "category": "nature",
    "region": "central",
    "link": "/nature/%E5%8F%B0%E7%81%A3%E7%9F%B3%E8%99%8E%E4%BF%9D%E8%82%B2",
    "lang": "zh-TW",
    "desc": "全台剩不到五百隻的幽靈貓——當最後的原生貓科走上消失的邊緣",
    "city": "苗栗"
  },
  {
    "title": "台灣穿山甲",
    "lat": 25.032423,
    "lng": 121.563356,
    "category": "nature",
    "region": "north",
    "link": "/nature/%E5%8F%B0%E7%81%A3%E7%A9%BF%E5%B1%B1%E7%94%B2",
    "lang": "zh-TW",
    "desc": "全世界被走私最多的哺乳動物，在台灣找到了一個安全的家",
    "city": "台北"
  },
  {
    "title": "台灣高山生態系與冰河孑遺",
    "lat": 23.463655,
    "lng": 120.959289,
    "category": "nature",
    "region": "central",
    "link": "/nature/%E5%8F%B0%E7%81%A3%E9%AB%98%E5%B1%B1%E7%94%9F%E6%85%8B%E7%B3%BB%E8%88%87%E5%86%B0%E6%B2%B3%E5%AD%91%E9%81%BA",
    "lang": "zh-TW",
    "desc": "探討台灣3000公尺以上高山環境的獨特生態系統，從台灣杉、玉山杜鵑到冰河時期孑遺物種的珍貴生物多樣性",
    "city": "南投"
  },
  {
    "title": "台灣黑熊",
    "lat": 25.02819,
    "lng": 121.57067,
    "category": "nature",
    "region": "north",
    "link": "/nature/%E5%8F%B0%E7%81%A3%E9%BB%91%E7%86%8A",
    "lang": "zh-TW",
    "desc": "胸前的白色 V 字是牠的簽名——台灣山林最後的王者，與牠未完的保育戰",
    "city": "台北"
  },
  {
    "title": "國家公園",
    "lat": 24.163688,
    "lng": 121.627228,
    "category": "nature",
    "region": "east",
    "link": "/nature/%E5%9C%8B%E5%AE%B6%E5%85%AC%E5%9C%92",
    "lang": "zh-TW",
    "desc": "36,197 平方公里塞進 9 座國家公園，密度世界第一的保育奇蹟",
    "city": "花蓮"
  },
  {
    "title": "台灣水獺：金門歐亞水獺的孤島求生記與本島的靜默消逝",
    "lat": 24.442308,
    "lng": 118.372635,
    "category": "nature",
    "region": "islands",
    "link": "/nature/%E6%B0%B4%E7%8D%BA",
    "lang": "zh-TW",
    "desc": "台灣本島歐亞水獺自1980年代後便無確切野外紀錄，族群現況不明且極不樂觀。目前僅存於金門的「戰地水獺」正面臨棲地破碎、路殺與微塑膠污染的多重夾擊。",
    "city": "金門"
  },
  {
    "title": "特有種",
    "lat": 23.47027,
    "lng": 120.953938,
    "category": "nature",
    "region": "central",
    "link": "/nature/%E7%89%B9%E6%9C%89%E7%A8%AE",
    "lang": "zh-TW",
    "desc": "台灣豐富的特有種生物，展現島嶼生物地理學的演化奇蹟與保育重要性",
    "city": "南投"
  },
  {
    "title": "生態多樣性",
    "lat": 23.46317,
    "lng": 120.949746,
    "category": "nature",
    "region": "central",
    "link": "/nature/%E7%94%9F%E6%85%8B%E5%A4%9A%E6%A8%A3%E6%80%A7",
    "lang": "zh-TW",
    "desc": "台灣面積僅佔全球0.025%，卻擁有超過5萬種生物，森林覆蓋率60.71%排名全球第33位",
    "city": "南投"
  },
  {
    "title": "福爾摩沙鳥類學：一個英國副領事、201 個拉丁名字，和他沒踏進去的山",
    "lat": 25.177651,
    "lng": 121.436906,
    "category": "nature",
    "region": "north",
    "link": "/nature/%E7%A6%8F%E7%88%BE%E6%91%A9%E6%B2%99%E9%B3%A5%E9%A1%9E%E5%AD%B8",
    "lang": "zh-TW",
    "desc": "1861 年，24 歲的史溫侯成為英國首任駐台副領事。五年後他離開時，留下一篇論文，讓世界第一次用拉丁文寫下台灣的鳥。但他的鳥類地圖，是一張從海岸線描出的地圖——中央山脈的空白裡，原住民已經用族語喊過這些鳥千年。",
    "city": "新北"
  },
  {
    "title": "臺灣的鯨豚",
    "lat": 23.99014,
    "lng": 121.605808,
    "category": "nature",
    "region": "east",
    "link": "/nature/%E8%87%BA%E7%81%A3%E7%9A%84%E9%AF%A8%E8%B1%9A",
    "lang": "zh-TW",
    "desc": "全球三分之一鯨豚物種的棲息地——從昔日捕鯨到今日賞鯨，臺灣如何轉身成為海洋生態研究重鎮？",
    "city": "花蓮"
  },
  {
    "title": "蘭嶼生態系：黑潮邊境的生命密碼",
    "lat": 22.029145,
    "lng": 121.541368,
    "category": "nature",
    "region": "east",
    "link": "/nature/%E8%98%AD%E5%B6%BC%E7%94%9F%E6%85%8B%E7%B3%BB",
    "lang": "zh-TW",
    "desc": "蘭嶼不屬於台灣，至少在生物學上如此。這座菲律賓火山島弧最北端的小島，被黑潮帶來的熱帶生命填滿，又在達悟族千年的生態智慧中，找到了人與自然的平衡。",
    "city": "台東"
  },
  {
    "title": "當「護國神山」成為雙面刃：台灣與颱風的地理宿命",
    "lat": 22.63091,
    "lng": 120.307293,
    "category": "nature",
    "region": "south",
    "link": "/nature/%E9%A2%B1%E9%A2%A8",
    "lang": "zh-TW",
    "desc": "從日治時期的氣象觀測到莫拉克滅村，再到颱風假文化與科技預警，重新理解這座島嶼如何與每年 3.5 個颱風共生。",
    "city": "高雄"
  },
  {
    "title": "Cicada：從 2009 年莫拉克到 2022 年丹大溪源的十五年田野錄音",
    "lat": 22.028688,
    "lng": 121.544962,
    "category": "people",
    "region": "east",
    "link": "/people/Cicada",
    "lang": "zh-TW",
    "desc": "2009 年在台北成立的 Cicada 是全器樂、無人聲的獨立樂團。創團鋼琴手江致潔（北藝大藝術史碩士）因為看到那年莫拉克颱風的新聞寫下第一批曲子。之後十五年，他們把台灣的海岸消逝、海洋生態、山林溪源變成一張張沒有人聲的專輯。2022 年《棲居在溪源之上》是一場 15 天、120 公里的中央山脈遠征產物；配樂作品獲日本 Academy Prize。2024 年《回返》回到西海岸「之間」——山與水、森林與土地的那段間隙。",
    "city": "台東"
  },
  {
    "title": "伍佰",
    "lat": 23.472152,
    "lng": 120.441536,
    "category": "people",
    "region": "south",
    "link": "/people/%E4%BC%8D%E4%BD%B0",
    "lang": "zh-TW",
    "desc": "台灣搖滾國寶，本土搖滾樂的代名詞，以《挪威的森林》等作品奠定搖滾地位",
    "city": "嘉義"
  },
  {
    "title": "侯孝賢",
    "lat": 25.032923,
    "lng": 121.559117,
    "category": "people",
    "region": "north",
    "link": "/people/%E4%BE%AF%E5%AD%9D%E8%B3%A2",
    "lang": "zh-TW",
    "desc": "拒絕特寫鏡頭卻征服世界的電影詩人——一個反電影語法的影像革命者",
    "city": "台北"
  },
  {
    "title": "八炯：從花蓮太魯閣族青年到被中共懸賞百萬的「聽床師」",
    "lat": 24.159008,
    "lng": 121.627261,
    "category": "people",
    "region": "east",
    "link": "/people/%E5%85%AB%E7%82%AF",
    "lang": "zh-TW",
    "desc": "2025 年 11 月，福建泉州公安局發布了一則懸賞通告，對象是台灣網紅八炯。這位從花蓮新城鄉出發、曾以旅遊影片獲獎的太魯閣族青年，在短短六年間，憑藉著對中共體制的辛辣嘲諷與「反共」流量，從一名地方創作者變成了國台辦口中的「台獨打手」，並在國際舞台上持續揭露中共統戰內幕。",
    "city": "花蓮"
  },
  {
    "title": "劉安婷",
    "lat": 24.151751,
    "lng": 120.669322,
    "category": "people",
    "region": "central",
    "link": "/people/%E5%8A%89%E5%AE%89%E5%A9%B7",
    "lang": "zh-TW",
    "desc": "2008 年從台中女中進普林斯頓，2013 年 23 歲辭紐約顧問工作回台灣創辦 TFT 為台灣而教。2016 年在成大畢業典禮問了一句「你拿幸運做什麼？」，那句話變成整整一代人的集體語錄。但她最常講的另一句話是「不要相信我個人」。2024 年 10 週年後，她把 TFT 董事長交給林妍希，自己轉任董事。她最好的作品不是 TFT，是讓 TFT 可以不在她身上。",
    "city": "台中"
  },
  {
    "title": "史溫侯：當外交官變成博物學家",
    "lat": 25.16638,
    "lng": 121.443262,
    "category": "people",
    "region": "north",
    "link": "/people/%E5%8F%B2%E6%BA%AB%E4%BE%AF",
    "lang": "zh-TW",
    "desc": "1856年，一個19歲的英國翻譯官在福爾摩沙西海岸記下他看到的第一隻鳥。四年後，他以52篇論文讓世界第一次認識這座島上住著什麼生物。他41歲死在倫敦，但他命名的物種至今仍在台灣的山林裡活著。",
    "city": "新北"
  },
  {
    "title": "吳哲宇（Che-Yu Wu）：從彈珠檯到威尼斯白牆，用 0 與 1 逼近靈魂的鐘錶匠",
    "lat": 25.036655,
    "lng": 121.566343,
    "category": "people",
    "region": "north",
    "link": "/people/%E5%90%B3%E5%93%B2%E5%AE%87",
    "lang": "zh-TW",
    "desc": "一個對系統著迷的台灣男孩，從彈珠檯、Flash 動畫、生物模擬器開始，走到威尼斯雙年展、Art Blocks、台北 101 三部曲個展。中間經過 NFT 破億、FTX 一夜歸零、卡繆荒謬主義的再次啟程。他自稱「古老的鐘錶匠」，堅持在 AI 生成氾濫的時代親手設計機制本身，並把一部分時間拿去寫 Markdown，為 AI 時代的台灣留一份真正的 SSOT。",
    "city": "台北"
  },
  {
    "title": "吳寶春：一個對排灣族孩子的承諾",
    "lat": 22.6844,
    "lng": 120.480617,
    "category": "people",
    "region": "south",
    "link": "/people/%E5%90%B3%E5%AF%B6%E6%98%A5",
    "lang": "zh-TW",
    "desc": "屏東農村子弟，中學學歷，不會法語。他用一條荔枝玫瑰麵包在巴黎拿下全球第一個麵包大師金牌——裡面裝著一個十年前對原住民孩子許下的承諾。",
    "city": "屏東"
  },
  {
    "title": "呂秀蓮",
    "lat": 24.998103,
    "lng": 121.294199,
    "category": "people",
    "region": "north",
    "link": "/people/%E5%91%82%E7%A7%80%E8%93%AE",
    "lang": "zh-TW",
    "desc": "從叛亂犯到副總統：華人世界第一位女性副總統的傳奇人生",
    "city": "桃園"
  },
  {
    "title": "周子瑜",
    "lat": 23.00679,
    "lng": 120.233776,
    "category": "people",
    "region": "south",
    "link": "/people/%E5%91%A8%E5%AD%90%E7%91%9C",
    "lang": "zh-TW",
    "desc": "一個從未談過政治的台南女孩，被一面 8 秒的國旗變成台灣命運的轉捩點。十年後她在大巨蛋念出親筆信：「我沒有離開，不是因為乖，是因為我真的渴望」。",
    "city": "台南"
  },
  {
    "title": "嚴長壽：郵件室小弟到觀光教父，然後他把一切都丟了",
    "lat": 22.756,
    "lng": 121.144,
    "category": "people",
    "region": "east",
    "link": "/people/%E5%9A%B4%E9%95%B7%E5%A3%BD",
    "lang": "zh-TW",
    "desc": "高中學歷，23 歲在美國運通送信。五年後當上總經理。再五年成為亞洲頂級飯店總裁，發明了「客人還沒下車就叫出名字」的服務系統。60 萬本暢銷書。然後他 62 歲辭職去台東偏鄉辦學校，隔年切了一顆腎。78 歲在太平洋邊蓋了一座藝術園區。",
    "city": "台東"
  },
  {
    "title": "壞特?te：醫學系讀九年的優等生，按下暫停鍵的那場休學",
    "lat": 24.797002,
    "lng": 120.972385,
    "category": "people",
    "region": "north",
    "link": "/people/%E5%A3%9E%E7%89%B9",
    "lang": "zh-TW",
    "desc": "2021 年 8 月 21 日，戴著黑帽墨鏡的壞特?te 上台領第 32 屆金曲獎最佳新人獎。她對著鏡頭說：「請你們不要害怕。」她本名林芝儀、新竹香山人、新竹女中、國防醫學院醫學系讀了九年，含大三那年的休學一年、含延畢一年。她通過兩階段醫師國考，差最後一階就是正式醫師。台灣最會讀書的賽道上，她按下暫停鍵的那一年。",
    "city": "新竹"
  },
  {
    "title": "安芝儇",
    "lat": 22.620646,
    "lng": 120.307739,
    "category": "people",
    "region": "south",
    "link": "/people/%E5%AE%89%E8%8A%9D%E5%84%87",
    "lang": "zh-TW",
    "desc": "從韓國職業應援到移居高雄，她把「來台演出」推進成「在台生活」的韓籍啦啦隊新路徑。",
    "city": "高雄"
  },
  {
    "title": "幾米",
    "lat": 24.744663,
    "lng": 121.750217,
    "category": "people",
    "region": "north",
    "link": "/people/%E5%B9%BE%E7%B1%B3",
    "lang": "zh-TW",
    "desc": "用繪本溫暖世界的插畫詩人，讓台灣繪本走上國際舞台",
    "city": "宜蘭"
  },
  {
    "title": "康士坦的變化球：「樂團不是靠堅持，不好玩就散了」的十年",
    "lat": 23.505205,
    "lng": 120.694924,
    "category": "people",
    "region": "south",
    "link": "/people/%E5%BA%B7%E5%A3%AB%E5%9D%A6%E7%9A%84%E8%AE%8A%E5%8C%96%E7%90%83",
    "lang": "zh-TW",
    "desc": "2013 年成立於台北的四人獨立樂團，團名結合希臘哲學家 Heraclitus 的「萬物皆流」與棒球投手的變化球。主唱 ARNY 是菲律賓出生、曾在滅火器打過貝斯的 20 年音樂人；鼓手小米罹患類風濕性關節炎至今拇指無法彎曲仍然打鼓；貝斯手金毛說「樂團不是靠堅持，不好玩就散了」。他們從 Legacy 兩人觀眾唱到 2023 年北流 5,000 人，中間沒有暴紅、沒有爆款單曲——只有十年的穩步進化。",
    "city": "嘉義"
  },
  {
    "title": "張志祺：從圖文不符到志祺七七，在極化時代尋找對話的「資訊策展人」",
    "lat": 22.991964,
    "lng": 120.225376,
    "category": "people",
    "region": "south",
    "link": "/people/%E5%BC%B5%E5%BF%97%E7%A5%BA",
    "lang": "zh-TW",
    "desc": "以「志祺七七」日更七年、165 萬訂閱著稱的資訊設計師，把複雜社會議題轉譯成懶人包。他在極化時代持續尋找台灣社會還能對話的可能性。",
    "city": "台南"
  },
  {
    "title": "張雨生：從偶像到預言家，一場跨越時代的音樂實驗",
    "lat": 25.163692,
    "lng": 121.437794,
    "category": "people",
    "region": "north",
    "link": "/people/%E5%BC%B5%E9%9B%A8%E7%94%9F",
    "lang": "zh-TW",
    "desc": "1989年，天馬藝工隊隊長的兒子以《天天想你》35萬張出道成為偶像；1994年，他用73分鐘樂團現場錄音回應市場，銷量慘澹卻被稱為預言。張雨生在偶像身份和創作良知之間磨了九年，《口是心非》上市四天後，他在淡水的凌晨翻車，再也沒有醒來。",
    "city": "新北"
  },
  {
    "title": "徐佳瑩：從護理師到金曲歌后，把選秀冠軍寫成創作題的人",
    "lat": 25.034152,
    "lng": 121.558632,
    "category": "people",
    "region": "north",
    "link": "/people/%E5%BE%90%E4%BD%B3%E7%91%A9",
    "lang": "zh-TW",
    "desc": "2008 年徐佳瑩辭掉護理工作，瞞著家人報名《超級星光大道》第三屆，差點買票回台中。〈身騎白馬〉把歌仔戲唱進選秀舞台，2018 年《心裡學》拿下金曲歌后與最佳國語專輯；到《給》與〈不在一起就不會分開〉，她把被評分的人生，慢慢寫成自己的題目。",
    "city": "台北"
  },
  {
    "title": "戴資穎",
    "lat": 22.623245,
    "lng": 120.301145,
    "category": "people",
    "region": "south",
    "link": "/people/%E6%88%B4%E8%B3%87%E7%A9%8E",
    "lang": "zh-TW",
    "desc": "214週世界球后紀錄保持者，從高雄前鎮到奧運銀牌的台灣羽球女王",
    "city": "高雄"
  },
  {
    "title": "曾雅妮",
    "lat": 24.991089,
    "lng": 121.299373,
    "category": "people",
    "region": "north",
    "link": "/people/%E6%9B%BE%E9%9B%85%E5%A6%AE",
    "lang": "zh-TW",
    "desc": "109週世界第一，LPGA 15冠5大賽，22歲成史上最年輕擁有5座大賽金盃的球員，超越老虎伍茲的紀錄；2025年結束11年冠軍荒，再度封后",
    "city": "桃園"
  },
  {
    "title": "李仙得：締約者與出賣者是同一個人",
    "lat": 22.006056,
    "lng": 120.738428,
    "category": "people",
    "region": "south",
    "link": "/people/%E6%9D%8E%E4%BB%99%E5%BE%97",
    "lang": "zh-TW",
    "desc": "1867年，美國商船羅發號在恆春半島船難，14人被排灣族殺害。美國領事李仙得八次來台交涉，跟原住民首領卓杞篤簽了一份沒有清政府參與的協議。然後他帶著對福爾摩沙的全部了解，跳槽到日本政府。五年後，日本用他的情報出兵台灣。",
    "city": "屏東"
  },
  {
    "title": "李昂",
    "lat": 24.047879,
    "lng": 120.42922,
    "category": "people",
    "region": "central",
    "link": "/people/%E6%9D%8E%E6%98%82",
    "lang": "zh-TW",
    "desc": "《殺夫》《迷園》作者，台灣女性主義文學先鋒",
    "city": "彰化"
  },
  {
    "title": "李智凱",
    "lat": 24.752139,
    "lng": 121.751109,
    "category": "people",
    "region": "north",
    "link": "/people/%E6%9D%8E%E6%99%BA%E5%87%B1",
    "lang": "zh-TW",
    "desc": "從《翻滾吧！男孩》的菜市場凱到奧運銀牌，台灣鞍馬王子十六年的翻滾人生",
    "city": "宜蘭"
  },
  {
    "title": "李洋",
    "lat": 25.028287,
    "lng": 121.559631,
    "category": "people",
    "region": "north",
    "link": "/people/%E6%9D%8E%E6%B4%8B",
    "lang": "zh-TW",
    "desc": "咬著牙拚過甲組的少年，現在咬著牙拚體邪：兩屆奧運羽球男雙金牌、史上最年輕部長、存款 3401 萬、債務 3638 萬、補頒一千萬獎金全捐",
    "city": "台北"
  },
  {
    "title": "李遠哲",
    "lat": 24.80816,
    "lng": 120.964153,
    "category": "people",
    "region": "north",
    "link": "/people/%E6%9D%8E%E9%81%A0%E5%93%B2",
    "lang": "zh-TW",
    "desc": "1986 年諾貝爾化學獎得主，以交叉分子束技術開創化學動力學新領域，台灣首位諾貝爾科學獎得主",
    "city": "新竹"
  },
  {
    "title": "杜聰明",
    "lat": 22.623192,
    "lng": 120.294427,
    "category": "people",
    "region": "south",
    "link": "/people/%E6%9D%9C%E8%81%B0%E6%98%8E",
    "lang": "zh-TW",
    "desc": "台灣第一位醫學博士，發明漸進斷癮法在17年間幫助11498人戒除鴉片，高雄醫學大學創辦人",
    "city": "高雄"
  },
  {
    "title": "林宥嘉：從 25 分滿分的〈Creep〉，到承認自己不需要完美的 17 年",
    "lat": 22.674639,
    "lng": 120.485672,
    "category": "people",
    "region": "south",
    "link": "/people/%E6%9E%97%E5%AE%A5%E5%98%89",
    "lang": "zh-TW",
    "desc": "2007 年 7 月 6 日，20 歲的林宥嘉以 Radiohead 的〈Creep〉拿下《超級星光大道》第一屆 25 分滿分冠軍。此後他三度叩關金曲歌王落空，2018 年起被腸躁症逼停六年。直到 2024 年《王 Love, Lord》親任四位製作人之一，他才說出：「過去的我很刁鑽，總希望拿出最好的表現。」17 年才學會的一件事，是不追著完美跑。",
    "city": "屏東"
  },
  {
    "title": "林書豪",
    "lat": 25.013375,
    "lng": 121.467589,
    "category": "people",
    "region": "north",
    "link": "/people/%E6%9E%97%E6%9B%B8%E8%B1%AA",
    "lang": "zh-TW",
    "desc": "高中州冠軍沒拿到獎學金，選秀沒人要，15天內被裁兩次——然後他讓全世界認識了「林來瘋」",
    "city": "新北"
  },
  {
    "title": "林琪兒：從台北出生到近地軌道，那位在太空吹風笛的台裔醫師",
    "lat": 25.034102,
    "lng": 121.563362,
    "category": "people",
    "region": "north",
    "link": "/people/%E6%9E%97%E7%90%AA%E5%85%92",
    "lang": "zh-TW",
    "desc": "1973 年出生於台北的林琪兒（Kjell N. Lindgren），是首位台灣出生的 NASA 太空人。空軍官校大三那年一紙氣喘誤診讓他告別飛行員之路，11 年後重測推翻診斷，他從 3,565 人裡被選為 NASA 第 20 屆太空人 9 人之一，累計在軌道停留 312 天。2026 年 4 月他以「Freedom 250」返台，在總統府說：「我的 NASA 太空人生涯始於台灣。」",
    "city": "台北"
  },
  {
    "title": "林義傑",
    "lat": 25.031629,
    "lng": 121.557956,
    "category": "people",
    "region": "north",
    "link": "/people/%E6%9E%97%E7%BE%A9%E5%82%91",
    "lang": "zh-TW",
    "desc": "從被田徑隊拒絕的瘦小孩，到徒步橫越撒哈拉沙漠創造歷史的極地跑者",
    "city": "台北"
  },
  {
    "title": "林義雄",
    "lat": 24.747503,
    "lng": 121.746923,
    "category": "people",
    "region": "north",
    "link": "/people/%E6%9E%97%E7%BE%A9%E9%9B%84",
    "lang": "zh-TW",
    "desc": "民主運動先驅，林宅血案受害者，反核四運動領袖",
    "city": "宜蘭"
  },
  {
    "title": "柯文哲",
    "lat": 25.033452,
    "lng": 121.562372,
    "category": "people",
    "region": "north",
    "link": "/people/%E6%9F%AF%E6%96%87%E5%93%B2",
    "lang": "zh-TW",
    "desc": "從葉克膜 SOP 建立者到第三勢力旗手，台灣第一位無黨籍台北市長的跌宕政治史",
    "city": "台北"
  },
  {
    "title": "楊丞琳：從天氣女團 Rainie 到自製〈曖昧 2025〉的製作人欄",
    "lat": 25.0395,
    "lng": 121.56216,
    "category": "people",
    "region": "north",
    "link": "/people/%E6%A5%8A%E4%B8%9E%E7%90%B3",
    "lang": "zh-TW",
    "desc": "2025 年 9 月 9 日，楊丞琳在《曖昧》原版 20 週年的同月同日，發行自己製作的〈曖昧 2025〉。這位從 2000 年 BMG 虛擬女團 4 in Love 出道、2005 年〈曖昧〉紅遍華語圈、2012 年紅磡倒吊三公尺演唱〈帶我走〉整臉微血管爆裂的女歌手，花了二十五年在每個舞台跟「被誰定義」協商——直到製作人那一欄寫下自己的名字。",
    "city": "台北"
  },
  {
    "title": "楊德昌",
    "lat": 25.035991,
    "lng": 121.557878,
    "category": "people",
    "region": "north",
    "link": "/people/%E6%A5%8A%E5%BE%B7%E6%98%8C",
    "lang": "zh-TW",
    "desc": "台灣新電影運動核心人物，坎城最佳導演，都市疏離的詩人",
    "city": "台北"
  },
  {
    "title": "江振誠",
    "lat": 25.028767,
    "lng": 121.55993,
    "category": "people",
    "region": "north",
    "link": "/people/%E6%B1%9F%E6%8C%AF%E8%AA%A0",
    "lang": "zh-TW",
    "desc": "從淡水商工到世界第14、塞舌爾的頓悟到台北大直的回歸，André Chiang 以八角哲學在國際餐飲界為台灣廚師確立了一個新座標",
    "city": "台北"
  },
  {
    "title": "沈伯洋：他研究中國認知戰，最後成了北京親自追的人",
    "lat": 25.034772,
    "lng": 121.558886,
    "category": "people",
    "region": "north",
    "link": "/people/%E6%B2%88%E4%BC%AF%E6%B4%8B",
    "lang": "zh-TW",
    "desc": "從犯罪學者到立委，沈伯洋花了七年研究中共對台資訊戰，二○二五年成為第一位被中國以「分裂國家罪」立案偵查的台灣民選政治人物。",
    "city": "台北"
  },
  {
    "title": "波特王 — 從「撩妹」娛樂到「粉紅」獵手，在法律與主權間掙扎的數位博弈者",
    "lat": 22.624086,
    "lng": 120.30408,
    "category": "people",
    "region": "south",
    "link": "/people/%E6%B3%A2%E7%89%B9%E7%8E%8B",
    "lang": "zh-TW",
    "desc": "波特王（陳加晉）的職業生涯演化，紀錄了台灣創作者從兩岸商業紅利的收割者，轉型為數位主權防禦者的過程，同時揭示了創作者與資本體系長期糾纏的法律、產權與財務複雜性。",
    "city": "高雄"
  },
  {
    "title": "洪醒夫：提早隕落的鄉土文學巨星",
    "lat": 24.08158,
    "lng": 120.539195,
    "category": "people",
    "region": "central",
    "link": "/people/%E6%B4%AA%E9%86%92%E5%A4%AB",
    "lang": "zh-TW",
    "desc": "1949年出生於彰化二林貧苦農家的洪醒夫，18歲發表第一篇小說，33歲因車禍離世前以小學教師身份創作鄉土文學，用短短15年寫出《黑面慶仔》、《吾土》、《散戲》等經典，捕捉台灣農村從農業到工商轉型的真實面貌，被文友戲稱「洪醒夫斯基」，成為戰後台灣文學不可磨滅的田莊之聲。",
    "city": "彰化"
  },
  {
    "title": "田馥甄：S.H.E 千萬銷量之後，把偶像體制一件件丟掉的歌手",
    "lat": 24.799515,
    "lng": 120.971101,
    "category": "people",
    "region": "north",
    "link": "/people/%E7%94%B0%E9%A6%A5%E7%94%84",
    "lang": "zh-TW",
    "desc": "2010 年 9 月田馥甄發行首張個人專輯《To Hebe》時，海報文案寫「出道十年超級新人」——那年 S.H.E 已賣超過千萬張唱片。十一年後她在第 32 屆金曲獎舞台對媽媽喊「媽，我沒浪費水費，我拿到金曲獎了」。從新竹客家小鎮到小巨蛋舞台，這位被華研唱片培養出的偶像花了二十五年，把代言、綜藝、中國市場、「文青歌后」標籤一件件主動退掉。",
    "city": "新竹"
  },
  {
    "title": "白先勇",
    "lat": 25.03092,
    "lng": 121.562133,
    "category": "people",
    "region": "north",
    "link": "/people/%E7%99%BD%E5%85%88%E5%8B%87",
    "lang": "zh-TW",
    "desc": "《台北人》作者，現代文學大師與崑曲復興推手",
    "city": "台北"
  },
  {
    "title": "盧廣仲：被公車輾過的三金天王",
    "lat": 23.006883,
    "lng": 120.234694,
    "category": "people",
    "region": "south",
    "link": "/people/%E7%9B%A7%E5%BB%A3%E4%BB%B2",
    "lang": "zh-TW",
    "desc": "2003 年台南男孩騎車買宵夜，公車輾過他的腿，粉碎性骨折。住院無聊，撿起表哥給的吉他。22 年後，他是台灣史上最年輕的三金大滿貫得主：金曲、金鐘、金馬，用一把吉他跟一雙斷過的腿走完的路。",
    "city": "台南"
  },
  {
    "title": "草東沒有派對：從陽明山草東街到兩座金曲最佳樂團的十二年",
    "lat": 25.158,
    "lng": 121.549,
    "category": "people",
    "region": "north",
    "link": "/people/%E8%8D%89%E6%9D%B1%E6%B2%92%E6%9C%89%E6%B4%BE%E5%B0%8D",
    "lang": "zh-TW",
    "desc": "2017 年金曲 28，一個自費壓 2,000 張 CD 的四人樂團壓倒性擊敗五月天拿下三座。他們消失了七年，橫跨鼓手凡凡 2021 年在防疫旅館過世與兩年沉默。2023 年用《瓦合》回歸，2024 金曲 35 拿下年度專輯 + 最佳華語 + 最佳樂團三冠，經紀人代領：「草東從來不只是站在舞台上的 4 個人。」",
    "city": "台北"
  },
  {
    "title": "莊智淵",
    "lat": 22.62936,
    "lng": 120.295615,
    "category": "people",
    "region": "south",
    "link": "/people/%E8%8E%8A%E6%99%BA%E6%B7%B5",
    "lang": "zh-TW",
    "desc": "桌球教父，四屆奧運代表，獨自苦練的孤獨英雄",
    "city": "高雄"
  },
  {
    "title": "蔡明亮",
    "lat": 25.04028,
    "lng": 121.566546,
    "category": "people",
    "region": "north",
    "link": "/people/%E8%94%A1%E6%98%8E%E4%BA%AE",
    "lang": "zh-TW",
    "desc": "威尼斯金獅獎得主，馬來西亞華人，慢電影美學大師",
    "city": "台北"
  },
  {
    "title": "蔣中正",
    "lat": 25.032779,
    "lng": 121.51769,
    "category": "people",
    "region": "north",
    "link": "/people/%E8%94%A3%E4%B8%AD%E6%AD%A3",
    "lang": "zh-TW",
    "desc": "他的銅像正在被搬走，但他奠下的地基——無論你稱之為建設或枷鎖——還在撐著這座島的每一條路、每一間學校、每一次選舉。",
    "city": "台北"
  },
  {
    "title": "蕭美琴",
    "lat": 23.995345,
    "lng": 121.60298,
    "category": "people",
    "region": "east",
    "link": "/people/%E8%95%AD%E7%BE%8E%E7%90%B4",
    "lang": "zh-TW",
    "desc": "日本出生、台南小學、新澤西長大、歐柏林畢業的「戰貓」，如何成為台灣歷史上最成功的對美代表，然後坐上副總統大位？",
    "city": "花蓮"
  },
  {
    "title": "許文龍",
    "lat": 22.939539,
    "lng": 120.233057,
    "category": "people",
    "region": "south",
    "link": "/people/%E8%A8%B1%E6%96%87%E9%BE%8D",
    "lang": "zh-TW",
    "desc": "奇美集團創辦人，企業家、小提琴家、藝術收藏家的三重身份，奇美博物館創建者",
    "city": "台南"
  },
  {
    "title": "許芳宜",
    "lat": 24.756912,
    "lng": 121.76045,
    "category": "people",
    "region": "north",
    "link": "/people/%E8%A8%B1%E8%8A%B3%E5%AE%9C",
    "lang": "zh-TW",
    "desc": "從宜蘭女孩到瑪乘舞團首席，再回台灣創立拉芳舞團——她用身體說出台灣最有力量的故事",
    "city": "宜蘭"
  },
  {
    "title": "賴清德：從礦工家庭到總統府的公共衛生醫師",
    "lat": 22.99379,
    "lng": 120.232834,
    "category": "people",
    "region": "south",
    "link": "/people/%E8%B3%B4%E6%B8%85%E5%BE%B7",
    "lang": "zh-TW",
    "desc": "台灣第16任總統，中華民國憲政史上首位以副總統身分參選並成功當選的政治人物",
    "city": "台南"
  },
  {
    "title": "連穎：「一個女團該有的舞蹈水平」到 solo EP 的六年",
    "lat": 25.060602,
    "lng": 121.508152,
    "category": "people",
    "region": "north",
    "link": "/people/%E9%80%A3%E7%A9%8E",
    "lang": "zh-TW",
    "desc": "2020 年，一個二十一歲的台中女孩在選秀舞台上對著潘瑋柏說：「我要讓所有人知道，一個女團該有的舞蹈水平。」六年後她出了 solo EP、粉絲在大稻埕集資辦生日舞台、三個國家同步投放應援廣告。她正在兌現那句話。",
    "city": "台北"
  },
  {
    "title": "邱繼弘：從 Web 2.0 失敗中崛起，以工程師思維重塑台灣數位廣告生態",
    "lat": 25.038744,
    "lng": 121.571472,
    "category": "people",
    "region": "north",
    "link": "/people/%E9%82%B1%E7%B9%BC%E5%BC%98",
    "lang": "zh-TW",
    "desc": "交通大學資工博士邱繼弘，從 Web 2.0 網站 funP 的失敗中汲取教訓，於 2009 年創立 cacaFly 聖洋科技。他以工程師思維把資料與技術引入廣告業，成為 Facebook、Google 等國際平台的台灣廣告代理巨頭；同時透過時代力量決策委員、台北市政府市政顧問、DMA 理事長等角色，持續推動台灣數位廣告產業的創新與規範。",
    "city": "台北"
  },
  {
    "title": "郁永河",
    "lat": 25.172812,
    "lng": 121.438167,
    "category": "people",
    "region": "north",
    "link": "/people/%E9%83%81%E6%B0%B8%E6%B2%B3",
    "lang": "zh-TW",
    "desc": "1697年，一個杭州書生自願跑到瘴癘之地台灣採硫磺，從台南徒步走到北投，寫下台灣最早的北部紀實文學",
    "city": "新北"
  },
  {
    "title": "郭婞淳",
    "lat": 23.577914,
    "lng": 119.58025,
    "category": "people",
    "region": "islands",
    "link": "/people/%E9%83%AD%E5%A9%9E%E6%B7%B3",
    "lang": "zh-TW",
    "desc": "台灣舉重選手，三屆奧運獎牌得主（2016 銅牌、2021 金牌、2024 銅牌），59 公斤級世界紀錄保持人，阿美族馬蘭部落後裔",
    "city": "澎湖"
  },
  {
    "title": "郭金發：燒肉粽背後的低音靈魂",
    "lat": 22.632978,
    "lng": 120.29372,
    "category": "people",
    "region": "south",
    "link": "/people/%E9%83%AD%E9%87%91%E7%99%BC",
    "lang": "zh-TW",
    "desc": "從大稻埕皮鞋店學徒到寶島低音歌王，郭金發以一曲〈燒肉粽〉唱出台灣戰後庶民的辛酸與韌性，並在舞台上燃盡最後一絲生命。",
    "city": "高雄"
  },
  {
    "title": "鄧雨賢",
    "lat": 24.998156,
    "lng": 121.307275,
    "category": "people",
    "region": "north",
    "link": "/people/%E9%84%A7%E9%9B%A8%E8%B3%A2",
    "lang": "zh-TW",
    "desc": "台灣歌謠之父，創作《望春風》《雨夜花》《月夜愁》等經典台語歌謠",
    "city": "桃園"
  },
  {
    "title": "鄧麗君：跑馬地的白布條、金門的塑膠袋空氣、清邁的五分鐘時差",
    "lat": 24.453484,
    "lng": 118.379674,
    "category": "people",
    "region": "islands",
    "link": "/people/%E9%84%A7%E9%BA%97%E5%90%9B",
    "lang": "zh-TW",
    "desc": "1989 年 5 月 27 日香港跑馬地，36 歲的鄧麗君頭綁「民主萬歲」白布條、胸前掛「反對軍管」牌，唱了一首她從來沒唱過的〈我的家在山的那一邊〉。那天之後她沒再踏足大陸。從雲林軍眷村的麗筠、五度勞軍金門的軍中情人、到日本有線大賞三連霸的外國人，她 42 年把溫柔唱成政治姿態，最後在清邁沒找到一生在找的那一袋乾淨空氣。",
    "city": "金門"
  },
  {
    "title": "鄭南榕",
    "lat": 25.02913,
    "lng": 121.558284,
    "category": "people",
    "region": "north",
    "link": "/people/%E9%84%AD%E5%8D%97%E6%A6%95",
    "lang": "zh-TW",
    "desc": "他在創刊前就準備了24張雜誌執照，因為他知道政府會一直關他的刊——一個「外省囝仔」如何為整座島嶼的言論自由而死",
    "city": "台北"
  },
  {
    "title": "鄭宜農：用最陌生的語言寫最誠實的歌——從 2016 身份公開到 2023 金曲台語雙獎的七年",
    "lat": 24.752403,
    "lng": 121.746485,
    "category": "people",
    "region": "north",
    "link": "/people/%E9%84%AD%E5%AE%9C%E8%BE%B2",
    "lang": "zh-TW",
    "desc": "1987 年生鄭宜農（Enno Cheng），父親是新電影導演鄭文堂。2007 年演員出道金馬入圍，2016 Facebook 出櫃同月離婚，2022 年首張全台語專輯《水逆》，2023 金曲 34 拿下最佳台語女歌手 + 最佳台語專輯雙獎。她說：「那我直接用一個我沒有這麼熟悉的語言，讓我自己變得很困難。」",
    "city": "宜蘭"
  },
  {
    "title": "鄭成功",
    "lat": 22.991831,
    "lng": 120.225255,
    "category": "people",
    "region": "south",
    "link": "/people/%E9%84%AD%E6%88%90%E5%8A%9F",
    "lang": "zh-TW",
    "desc": "一個中日混血海盜之子，用十六年抗清、九個月攻台、五個月建國，然後在三十七歲暴斃——他的名字至今被四個政權爭相認領",
    "city": "台南"
  },
  {
    "title": "鄭麗文",
    "lat": 25.036281,
    "lng": 121.56707,
    "category": "people",
    "region": "north",
    "link": "/people/%E9%84%AD%E9%BA%97%E6%96%87",
    "lang": "zh-TW",
    "desc": "從 1988 年台大校門為台獨絕食的學運女孩，到 2026 年在北京對習近平說「兩岸同胞都是中國人」的國民黨主席。這條軌跡上發生過什麼？",
    "city": "台北"
  },
  {
    "title": "鍾理和",
    "lat": 22.627295,
    "lng": 120.303571,
    "category": "people",
    "region": "south",
    "link": "/people/%E9%8D%BE%E7%90%86%E5%92%8C",
    "lang": "zh-TW",
    "desc": "《原鄉人》作者，台灣文學之父，貧病交加仍堅持創作的文學鬥士",
    "city": "高雄"
  },
  {
    "title": "阿爆（阿仍仍）：把排灣族語送進金曲年度專輯的那個 future pop 歌手",
    "lat": 22.759923,
    "lng": 121.138646,
    "category": "people",
    "region": "east",
    "link": "/people/%E9%98%BF%E7%88%86",
    "lang": "zh-TW",
    "desc": "2020 年金曲 31 年度專輯頒給全排灣語電音《kinakaian 母親的舌頭》。阿爆（Aljenljeng Tjaluvie，1981 年臺東金峰）從 R&B 雙人組 Abao & Brandy 出道、當過十年護理師，2019 與 Dizparity 把族語做成 future pop，改寫「原住民音樂 = 保存」。",
    "city": "台東"
  },
  {
    "title": "陳子見（視網膜）— 在官媒廢墟上蓋起嘲諷大廈，又在巔峰時親手拆掉它",
    "lat": 23.742108,
    "lng": 120.682223,
    "category": "people",
    "region": "central",
    "link": "/people/%E9%99%B3%E5%AD%90%E8%A6%8B",
    "lang": "zh-TW",
    "desc": "從福建統戰團看央視《新聞聯播》誕生靈感，到23歲空降華視成為史上最年輕午間新聞主播，再到121萬訂閱頻道主動停更，陳子見以「視網膜」之名完成八年去威權解構行動。2023年後轉戰公視兒少節目，主持《哈囉！你給問嗎？》（金鐘59入圍）與《成仁高中偵探社》S1、S2（金鐘60入圍少年節目），2026年起與愛犬柚子旅居東京一年，同時在IG與個人YouTube分享「Retina News」與極端厭食香菜的日常。",
    "city": "南投"
  },
  {
    "title": "陳樹菊",
    "lat": 22.753585,
    "lng": 121.148376,
    "category": "people",
    "region": "east",
    "link": "/people/%E9%99%B3%E6%A8%B9%E8%8F%8A",
    "lang": "zh-TW",
    "desc": "一個台東菜販，用五十年的菜錢捐了數千萬，卻說自己「就是一個賣菜的」",
    "city": "台東"
  },
  {
    "title": "陳水扁",
    "lat": 25.028494,
    "lng": 121.557321,
    "category": "people",
    "region": "north",
    "link": "/people/%E9%99%B3%E6%B0%B4%E6%89%81",
    "lang": "zh-TW",
    "desc": "台灣第十、十一任總統，2000年首次政黨輪替實現者，公投法與原住民族基本法的推動者",
    "city": "台北"
  },
  {
    "title": "陳澄波",
    "lat": 23.484701,
    "lng": 120.449082,
    "category": "people",
    "region": "south",
    "link": "/people/%E9%99%B3%E6%BE%84%E6%B3%A2",
    "lang": "zh-TW",
    "desc": "他以油畫征服了東京的帝展，卻在嘉義車站前被槍斃——而讓世人知道他的，往往是死亡，不是那些畫。",
    "city": "嘉義"
  },
  {
    "title": "陳菊",
    "lat": 22.634316,
    "lng": 120.298267,
    "category": "people",
    "region": "south",
    "link": "/people/%E9%99%B3%E8%8F%8A",
    "lang": "zh-TW",
    "desc": "從美麗島的死囚到南霸天「花媽」，她是台灣民主轉型最鮮明的見證者。",
    "city": "高雄"
  },
  {
    "title": "韓國瑜",
    "lat": 22.62341,
    "lng": 120.29419,
    "category": "people",
    "region": "south",
    "link": "/people/%E9%9F%93%E5%9C%8B%E7%91%9C",
    "lang": "zh-TW",
    "desc": "史上第一位被罷免的直轄市長，四年後當上立法院長。這是什麼樣的政治軌跡？",
    "city": "高雄"
  },
  {
    "title": "寧願燒盡，不願鏽壞：馬偕與他深愛的福爾摩沙",
    "lat": 25.177953,
    "lng": 121.443649,
    "category": "people",
    "region": "north",
    "link": "/people/%E9%A6%AC%E5%81%95",
    "lang": "zh-TW",
    "desc": "從拔牙兩萬顆到創辦女子學堂，加拿大宣教士馬偕如何成為「正港台灣人」，用三十年生命改寫北台灣的醫療、教育與科學探索史。",
    "city": "新北"
  },
  {
    "title": "馬英九",
    "lat": 25.038067,
    "lng": 121.564699,
    "category": "people",
    "region": "north",
    "link": "/people/%E9%A6%AC%E8%8B%B1%E4%B9%9D",
    "lang": "zh-TW",
    "desc": "中華民國第十二、十三任總統，兩岸破冰政策的推手，也是22K薪資停滯與太陽花學運的執政背景",
    "city": "台北"
  },
  {
    "title": "魏如萱：從自然捲主唱「娃娃」到兩座金曲歌后，只想被聽見的二十年",
    "lat": 23.987856,
    "lng": 121.594666,
    "category": "people",
    "region": "east",
    "link": "/people/%E9%AD%8F%E5%A6%82%E8%90%B1",
    "lang": "zh-TW",
    "desc": "2003 年自然捲主唱「娃娃」，2006 年聲帶受傷後用「Waa Wei」單飛，2020 與 2025 年兩度拿下金曲最佳國語女歌手。從〈彼個所在〉四語悼念盧凱彤、〈Ophelia〉童聲版的女性抵抗，到《珍珠刑》從疼痛長出的勇敢——她二十年走的是華語流行音樂最反直覺的路徑：讓聲音比臉更有名，讓作品比人格活得更久。",
    "city": "花蓮"
  },
  {
    "title": "王齊麟與李洋（麟洋配）",
    "lat": 25.026551,
    "lng": 121.562359,
    "category": "people",
    "region": "north",
    "link": "/people/%E9%BA%9F%E6%B4%8B%E9%85%8D",
    "lang": "zh-TW",
    "desc": "從國中同學到奧運金牌：「麟洋配」34分鐘內直落二擊敗中國，寫下台灣羽球史上第一面奧運金牌",
    "city": "台北"
  },
  {
    "title": "黃仁勳",
    "lat": 25.027155,
    "lng": 121.571315,
    "category": "people",
    "region": "north",
    "link": "/people/%E9%BB%83%E4%BB%81%E5%8B%B3",
    "lang": "zh-TW",
    "desc": "從肯塔基寄宿學校到五兆美元帝國——一個掃廁所的台南男孩如何押注十年後才到來的未來",
    "city": "台北"
  },
  {
    "title": "黃光雄：在嘉義的田野上蓋了一座教育學院的人",
    "lat": 23.477868,
    "lng": 120.442057,
    "category": "people",
    "region": "south",
    "link": "/people/%E9%BB%83%E5%85%89%E9%9B%84",
    "lang": "zh-TW",
    "desc": "1996年，黃光雄從師大南下嘉義，在中正大學創立了教育學研究所，後來又把它擴建成教育學院。他花了半個世紀把西方的課程理論搬進台灣，翻譯了質性研究的經典教科書，主持了九年一貫課綱的研究規劃，還帶著一群學者用三年時間設計出以「尊重與關懷」為核心的道德教學方案。2021年過世，享壽84歲。",
    "city": "嘉義"
  },
  {
    "title": "黃春明",
    "lat": 24.74476,
    "lng": 121.760288,
    "category": "people",
    "region": "north",
    "link": "/people/%E9%BB%83%E6%98%A5%E6%98%8E",
    "lang": "zh-TW",
    "desc": "《兒子的大玩偶》《看海的日子》作者，宜蘭鄉土文學代表作家",
    "city": "宜蘭"
  },
  {
    "title": "黃玉嬌",
    "lat": 24.989527,
    "lng": 121.300394,
    "category": "people",
    "region": "north",
    "link": "/people/%E9%BB%83%E7%8E%89%E5%AC%8C",
    "lang": "zh-TW",
    "desc": "1977 年中壢事件的關鍵時刻，她站在警局門口勸群眾不要衝動——這位 58 歲的留日藥師，後來當選四屆省議員、民進黨創黨元老，卻在歷史敘事中長期被忽略。",
    "city": "桃園"
  },
  {
    "title": "黃震南",
    "lat": 23.473356,
    "lng": 120.447497,
    "category": "people",
    "region": "south",
    "link": "/people/%E9%BB%83%E9%9C%87%E5%8D%97",
    "lang": "zh-TW",
    "desc": "黃震南是台灣文史工作者、藏書家與作家，以PTT暱稱Sizumaru起家，經營「活水來冊房」專頁分享台灣歷史與舊書文化。著有《台灣史上最有梗的台灣史》等書，被譽為藏書界的竹野內豐。他從嘉義六腳書香家庭出發，父子南北分工蒐集文獻，致力讓嚴肅台灣史變得有趣親民。",
    "city": "嘉義"
  },
  {
    "title": "齊柏林",
    "lat": 25.025743,
    "lng": 121.560599,
    "category": "people",
    "region": "north",
    "link": "/people/%E9%BD%8A%E6%9F%8F%E6%9E%97",
    "lang": "zh-TW",
    "desc": "一個公務員薪水養不起直升機的人，如何用抵押房子的錢拍出台灣紀錄片史上最成功的作品",
    "city": "台北"
  },
  {
    "title": "2026 鄭習會：國共領導人十年再會的十分鐘",
    "lat": 25.035492,
    "lng": 121.572332,
    "category": "society",
    "region": "north",
    "link": "/society/2026%E9%84%AD%E7%BF%92%E6%9C%83%E8%88%87%E5%9C%8B%E5%85%B1%E5%8D%81%E5%B9%B4%E5%86%8D%E6%9C%83",
    "lang": "zh-TW",
    "desc": "2026 年 4 月 10 日，鄭麗文在北京見習近平，成為十年來第一位會見中共總書記的中華民國主要政黨領袖。會談十分鐘，同時台灣海峽有 100 艘解放軍船艦。這場「和平之旅」究竟在旅什麼？",
    "city": "台北"
  },
  {
    "title": "一個教師的誕生：台灣師資培育制度的四十年改革與塌縮",
    "lat": 25.039633,
    "lng": 121.569094,
    "category": "society",
    "region": "north",
    "link": "/society/%E4%B8%80%E5%80%8B%E6%95%99%E5%B8%AB%E7%9A%84%E8%AA%95%E7%94%9F%EF%BC%9A%E5%8F%B0%E7%81%A3%E5%B8%AB%E8%B3%87%E5%9F%B9%E8%82%B2%E5%88%B6%E5%BA%A6",
    "lang": "zh-TW",
    "desc": "1994 年立法院通過《師資培育法》，把「師範體系一條龍」改成「開放多元師培」，當時被視為台灣教育史的進步里程碑。三十年後的數字很冷靜：原本 9 所教育大學被整併到只剩 3 所、109 學年全台師資培育機構招生不足額史上最高、112-113 年教師檢定通過率跌到 52%（近年新低）、近半師培生把師培課當備胎、42% 的人在拿到教師證前就放棄了。一個國家花了三十年改革師資制度，結果是：想當老師的人變少、能留下來的人被訓練得跟現場越來越遠。",
    "city": "台北"
  },
  {
    "title": "偏遠地區學校教育發展條例全解：國家花了 175 億，還是擋不住人口重力",
    "lat": 22.680014,
    "lng": 120.47709,
    "category": "society",
    "region": "south",
    "link": "/society/%E5%81%8F%E9%81%A0%E5%9C%B0%E5%8D%80%E5%AD%B8%E6%A0%A1%E6%95%99%E8%82%B2%E7%99%BC%E5%B1%95%E6%A2%9D%E4%BE%8B%E5%85%A8%E8%A7%A3",
    "lang": "zh-TW",
    "desc": "2016 年 11 月 21 日，立法院三讀通過《偏遠地區學校教育發展條例》全文 21 條。這部法律的存在本身是國家對自己制度失能的正式承認。八年過去，政府在偏鄉硬體投入累計 175 億元、18.6 億元改善師生宿舍。但 113 學年全國一口氣有 18 所國小停辦，是台灣教育史上最多的一年；屏東縣四年裁併七校；全國廢校率還在上升。條例救了法律，但擋不住人口重力。",
    "city": "屏東"
  },
  {
    "title": "動物園與展演動物倫理",
    "lat": 24.811606,
    "lng": 120.97597,
    "category": "society",
    "region": "north",
    "link": "/society/%E5%8B%95%E7%89%A9%E5%9C%92%E8%88%87%E5%B1%95%E6%BC%94%E5%8B%95%E7%89%A9%E5%80%AB%E7%90%86",
    "lang": "zh-TW",
    "desc": "從鐵籠裡的大象到 Xpark 的水母牆——台灣正在重新定義人與被展示動物的關係",
    "city": "新竹"
  },
  {
    "title": "台灣公共衛生與防疫體系",
    "lat": 25.03442,
    "lng": 121.570899,
    "category": "society",
    "region": "north",
    "link": "/society/%E5%8F%B0%E7%81%A3%E5%85%AC%E5%85%B1%E8%A1%9B%E7%94%9F%E8%88%87%E9%98%B2%E7%96%AB%E9%AB%94%E7%B3%BB",
    "lang": "zh-TW",
    "desc": "2003 年和平醫院封院死了 30 個人。十七年後 COVID-19 全球大爆發，台灣靠那場災難的教訓撐了 18 個月零社區感染。一場創傷如何變成一座島嶼的免疫記憶。",
    "city": "台北"
  },
  {
    "title": "台灣原住民族土地正義與傳統領域",
    "lat": 24.165074,
    "lng": 121.62326,
    "category": "society",
    "region": "east",
    "link": "/society/%E5%8F%B0%E7%81%A3%E5%8E%9F%E4%BD%8F%E6%B0%91%E6%97%8F%E5%9C%9F%E5%9C%B0%E6%AD%A3%E7%BE%A9%E8%88%87%E5%82%B3%E7%B5%B1%E9%A0%98%E5%9F%9F",
    "lang": "zh-TW",
    "desc": "探討台灣原住民族土地權利的歷史脈絡、法律發展、傳統領域劃設爭議與原住民族轉型正義委員會的工作成果",
    "city": "花蓮"
  },
  {
    "title": "台灣原住民族教育與語言復振的交界：小學護得住，中學接不住",
    "lat": 22.676157,
    "lng": 120.481677,
    "category": "society",
    "region": "south",
    "link": "/society/%E5%8F%B0%E7%81%A3%E5%8E%9F%E4%BD%8F%E6%B0%91%E6%97%8F%E6%95%99%E8%82%B2%E8%88%87%E8%AA%9E%E8%A8%80%E5%BE%A9%E6%8C%AF%E7%9A%84%E4%BA%A4%E7%95%8C",
    "lang": "zh-TW",
    "desc": "2012 年屏東泰武國小的排灣族老師查馬克·法拉屋樂用錄音筆從耆老口中採集古謠，率領孩子唱進金曲獎。2017 年《原住民族語言發展法》把族語升格為國家語言。2019 年《原住民族教育法》寫入「十年達標」的教師比例條文。國小階段的原住民族實驗學校從 25 所增加到 38 所。但上了國中之後，整個系統塌陷：全台灣原住民族實驗中學只有 6 所，大專原住民學生粗在學率 56.3%，比一般生少了 35.3 個百分點。查馬克 2021 年病逝，享年 42 歲。小學護得住，中學接不住。斷層還在那裡。",
    "city": "屏東"
  },
  {
    "title": "台灣同婚與性別平權",
    "lat": 25.037785,
    "lng": 121.571531,
    "category": "society",
    "region": "north",
    "link": "/society/%E5%8F%B0%E7%81%A3%E5%90%8C%E5%A9%9A%E8%88%87%E6%80%A7%E5%88%A5%E5%B9%B3%E6%AC%8A",
    "lang": "zh-TW",
    "desc": "從戒嚴期的監獄囚犯到亞洲第一部同婚法，一個男人的30年奮鬥如何改寫島嶼的愛情定義",
    "city": "台北"
  },
  {
    "title": "台灣國防與軍事現代化",
    "lat": 25.026168,
    "lng": 121.571477,
    "category": "society",
    "region": "north",
    "link": "/society/%E5%8F%B0%E7%81%A3%E5%9C%8B%E9%98%B2%E8%88%87%E8%BB%8D%E4%BA%8B%E7%8F%BE%E4%BB%A3%E5%8C%96",
    "lang": "zh-TW",
    "desc": "2025 年 10 月，賴清德在湖口主持 M1A2T 戰車營成軍。同一個月，前參謀總長李喜明苦笑著說：「如果戰車都可以是不對稱武器，還有什麼不是不對稱武器。」這是一座島嶼在兩種國防邏輯之間拉扯的故事。",
    "city": "台北"
  },
  {
    "title": "台灣的斜槓世代——一人多職的生存與選擇",
    "lat": 25.036133,
    "lng": 121.558053,
    "category": "society",
    "region": "north",
    "link": "/society/%E5%8F%B0%E7%81%A3%E6%96%9C%E6%A7%93%E4%B8%96%E4%BB%A3",
    "lang": "zh-TW",
    "desc": "當碩士學歷只換得來一間台北套房的租金，斜槓不是選擇，是活下去的數學題",
    "city": "台北"
  },
  {
    "title": "台灣有哪些動物園：最老的不在木柵，最大的也不只是動物園",
    "lat": 24.807351,
    "lng": 120.975675,
    "category": "society",
    "region": "north",
    "link": "/society/%E5%8F%B0%E7%81%A3%E6%9C%89%E5%93%AA%E4%BA%9B%E5%8B%95%E7%89%A9%E5%9C%92",
    "lang": "zh-TW",
    "desc": "從圓仔到海生館夜宿，台灣的動物園不是一張親子景點清單，而是一條城市、觀光與海洋教育一起長出的島內路線。",
    "city": "新竹"
  },
  {
    "title": "鏟子超人與島嶼共時性：台灣災難志工文化如何形塑國族認同",
    "lat": 23.994038,
    "lng": 121.608877,
    "category": "society",
    "region": "east",
    "link": "/society/%E5%8F%B0%E7%81%A3%E7%81%BD%E9%9B%A3%E5%BF%97%E5%B7%A5%E6%96%87%E5%8C%96",
    "lang": "zh-TW",
    "desc": "以2025年花蓮光復鄉水災為鏡，探討台灣獨特的災難志工動員模式如何透過社群媒體重新定義島嶼共同體意識，從921地震到花蓮水災的社會韌性演化軌跡。",
    "city": "花蓮"
  },
  {
    "title": "台灣環境正義與鄰避爭議",
    "lat": 22.035319,
    "lng": 121.554203,
    "category": "society",
    "region": "east",
    "link": "/society/%E5%8F%B0%E7%81%A3%E7%92%B0%E5%A2%83%E6%AD%A3%E7%BE%A9%E8%88%87%E9%84%B0%E9%81%BF%E7%88%AD%E8%AD%B0",
    "lang": "zh-TW",
    "desc": "探討台灣環境負擔分配不均現象，從焚化爐、核廢料到石化業的鄰避衝突，分析環境不平等問題與社會公義議題",
    "city": "台東"
  },
  {
    "title": "台灣省籍矛盾",
    "lat": 25.025627,
    "lng": 121.569162,
    "category": "society",
    "region": "north",
    "link": "/society/%E5%8F%B0%E7%81%A3%E7%9C%81%E7%B1%8D%E7%9F%9B%E7%9B%BE",
    "lang": "zh-TW",
    "desc": "省籍矛盾不是兩群人互相討厭的故事，而是一場關於誰有資格定義「台灣人」的權力爭奪——它在選票上死而復生，在眷村拆遷裡悄悄蒸發，卻從未真正終結。",
    "city": "台北"
  },
  {
    "title": "台灣社區與里文化",
    "lat": 25.028148,
    "lng": 121.559885,
    "category": "society",
    "region": "north",
    "link": "/society/%E5%8F%B0%E7%81%A3%E7%A4%BE%E5%8D%80%E8%88%87%E9%87%8C%E6%96%87%E5%8C%96",
    "lang": "zh-TW",
    "desc": "從最基層的民主實踐到社區營造的社會創新",
    "city": "台北"
  },
  {
    "title": "台灣補習班文化：一條街的興衰，與一整個社會的焦慮帳單",
    "lat": 25.026236,
    "lng": 121.565023,
    "category": "society",
    "region": "north",
    "link": "/society/%E5%8F%B0%E7%81%A3%E8%A3%9C%E7%BF%92%E7%8F%AD%E6%96%87%E5%8C%96",
    "lang": "zh-TW",
    "desc": "1981年，台北南陽街擠進十萬名重考生和48家補習班。四十年後只剩三家，學生不到2,500人，一樓全變成手搖飲店。但補習班沒有消失，它搬進了每個社區的巷弄，從18,000家長成比便利商店還多的存在。教改說要鬆綁，結果補習班數量翻了三倍。",
    "city": "台北"
  },
  {
    "title": "台灣長期照顧制度發展",
    "lat": 25.03075,
    "lng": 121.562086,
    "category": "society",
    "region": "north",
    "link": "/society/%E5%8F%B0%E7%81%A3%E9%95%B7%E6%9C%9F%E7%85%A7%E9%A1%A7%E5%88%B6%E5%BA%A6%E7%99%BC%E5%B1%95",
    "lang": "zh-TW",
    "desc": "全世界最先進的長照制度，卻同時存在著最大的隱形照顧體系",
    "city": "台北"
  },
  {
    "title": "名間焚化爐之戰：當三十萬噸「垃圾債」撞向百億茶鄉生存線",
    "lat": 23.748361,
    "lng": 120.685035,
    "category": "society",
    "region": "central",
    "link": "/society/%E5%90%8D%E9%96%93%E7%84%9A%E5%8C%96%E7%88%90",
    "lang": "zh-TW",
    "desc": "南投縣堆置垃圾於 2024 年底突破 31 萬噸，引發「垃圾圍城」危機。縣長許淑華計畫於名間鄉新民村設置每日處理 500 噸的焚化爐，引發超過 250 位學者連署抗爭。這是一場關於特定農業區、柴棺龜棲地與全台最大手搖飲茶葉供應鏈的生存保衛戰。",
    "city": "南投"
  },
  {
    "title": "地震：與地牛共舞的島嶼記憶",
    "lat": 23.994213,
    "lng": 121.605522,
    "category": "society",
    "region": "east",
    "link": "/society/%E5%9C%B0%E9%9C%87",
    "lang": "zh-TW",
    "desc": "為什麼外國人嚇得要命，台灣人卻只關心泡麵糊了沒？從清領「地生毛」到 921 的 102 秒，看這座島嶼如何把災難內化成日常。",
    "city": "花蓮"
  },
  {
    "title": "環保與永續發展",
    "lat": 24.062855,
    "lng": 120.440142,
    "category": "society",
    "region": "central",
    "link": "/society/%E7%92%B0%E4%BF%9D%E8%88%87%E6%B0%B8%E7%BA%8C%E7%99%BC%E5%B1%95",
    "lang": "zh-TW",
    "desc": "從煙囪之島到淨零台灣：40年環保運動的覺醒之路",
    "city": "彰化"
  },
  {
    "title": "社會住宅與居住正義",
    "lat": 25.026528,
    "lng": 121.560813,
    "category": "society",
    "region": "north",
    "link": "/society/%E7%A4%BE%E6%9C%83%E4%BD%8F%E5%AE%85%E8%88%87%E5%B1%85%E4%BD%8F%E6%AD%A3%E7%BE%A9",
    "lang": "zh-TW",
    "desc": "台灣如何透過社會住宅政策實現居住正義，讓每個人都有安身立命的地方",
    "city": "台北"
  },
  {
    "title": "野百合學運",
    "lat": 25.030919,
    "lng": 121.514771,
    "category": "society",
    "region": "north",
    "link": "/society/%E9%87%8E%E7%99%BE%E5%90%88%E5%AD%B8%E9%81%8B",
    "lang": "zh-TW",
    "desc": "一群大學生在中正紀念堂靜坐七天，最後逼得一個拖了四十多年的政治體制開始鬆動。野百合學運真正改變的，不只是國是會議，而是台灣人第一次清楚看見：學生可以直接改寫憲政改革的時間表。 ",
    "city": "台北"
  },
  {
    "title": "馬英九迷因：從「死亡之握」到「馬腦水母」，網路文化如何重塑政治人物形象",
    "lat": 25.027082,
    "lng": 121.568272,
    "category": "society",
    "region": "north",
    "link": "/society/%E9%A6%AC%E8%8B%B1%E4%B9%9D%E8%BF%B7%E5%9B%A0",
    "lang": "zh-TW",
    "desc": "2012年起，前總統馬英九的言行在台灣網路社群中發酵，從「死亡之握」的戲謔到「鹿茸」的失言，乃至「馬腦水母」的自嘲，一系列迷因深刻影響了公眾對其的觀感。這些網路現象不僅反映了台灣獨特的政治文化，更展現了數位時代下，迷因如何解構並重塑政治人物的公共形象與社會記憶。",
    "city": "台北"
  },
  {
    "title": "半導體產業",
    "lat": 24.788514,
    "lng": 120.999915,
    "category": "technology",
    "region": "north",
    "link": "/technology/%E5%8D%8A%E5%B0%8E%E9%AB%94%E7%94%A2%E6%A5%AD",
    "lang": "zh-TW",
    "desc": "從張忠謀的歷史賭注到2奈米時代：台積電如何讓台灣成為全球科技命脈",
    "city": "新竹"
  },
  {
    "title": "台灣的 AI 日常——當人工智慧走進街頭巷尾",
    "lat": 23.482202,
    "lng": 120.45482,
    "category": "technology",
    "region": "south",
    "link": "/technology/%E5%8F%B0%E7%81%A3AI%E6%97%A5%E5%B8%B8",
    "lang": "zh-TW",
    "desc": "台灣人每天跟 AI 互動十幾次，但多數人不知道自己在跟 AI 說話",
    "city": "嘉義"
  },
  {
    "title": "台灣 VR 十年：從王雪紅宣告元年到把團隊賣給 Google",
    "lat": 22.621994,
    "lng": 120.298596,
    "category": "technology",
    "region": "south",
    "link": "/technology/%E5%8F%B0%E7%81%A3VR%E5%85%83%E5%AE%87%E5%AE%99%E8%88%88%E8%A1%B0%E5%8F%B2",
    "lang": "zh-TW",
    "desc": "2016 年 HTC 在巴塞隆納發表 Vive，王雪紅說這是 VR 元年。九年後 HTC 以 2.5 億美元把 XR 團隊賣給 Google。中間發生的事，是一整座島嶼對「下一個大事」的集體押注與集體失溫。",
    "city": "高雄"
  },
  {
    "title": "台灣人工智慧發展與未來策略",
    "lat": 23.004245,
    "lng": 120.224089,
    "category": "technology",
    "region": "south",
    "link": "/technology/%E5%8F%B0%E7%81%A3%E4%BA%BA%E5%B7%A5%E6%99%BA%E6%85%A7%E7%99%BC%E5%B1%95%E8%88%87%E6%9C%AA%E4%BE%86%E7%AD%96%E7%95%A5",
    "lang": "zh-TW",
    "desc": "全世界訓練 AI 的晶片九成來自台灣，但這座島的 AI 野心不只是當代工廠——從 PTT 創辦人建立的 AI 實驗室，到政府押注的繁體中文大型語言模型 TAIDE，台灣正在硬體霸權之上長出自己的 AI 靈魂。",
    "city": "台南"
  },
  {
    "title": "當地震來襲時，誰在值班？台灣災難醫療體系的制度密碼",
    "lat": 23.98514,
    "lng": 121.596932,
    "category": "technology",
    "region": "east",
    "link": "/technology/%E5%8F%B0%E7%81%A3%E7%81%BD%E9%9B%A3%E9%86%AB%E7%99%82%E9%AB%94%E7%B3%BB",
    "lang": "zh-TW",
    "desc": "從921地震到花蓮強震，台灣如何建構出以急診科為核心的災難醫療網？制度設計的精妙之處不在設備，而在「誰值班」的巧思。",
    "city": "花蓮"
  },
  {
    "title": "台灣玩家的瘋狂時刻：追物流車、擠爆北投、洛杉磯舉盃",
    "lat": 25.0328,
    "lng": 121.567183,
    "category": "technology",
    "region": "north",
    "link": "/technology/%E5%8F%B0%E7%81%A3%E7%8E%A9%E5%AE%B6%E7%9A%84%E7%98%8B%E7%8B%82%E6%99%82%E5%88%BB",
    "lang": "zh-TW",
    "desc": "2012 年凌晨三點，台灣玩家騎機車追超商物流車搶暗黑破壞神 3。2016 年，一隻卡比獸讓北投公園湧入數千人，《時代雜誌》稱之為「世界末日預演」。2020 年，搶口罩的手還沒停，又開始搶 Switch 和 PS5。",
    "city": "台北"
  },
  {
    "title": "科技園區發展",
    "lat": 24.797179,
    "lng": 120.968996,
    "category": "technology",
    "region": "north",
    "link": "/technology/%E7%A7%91%E6%8A%80%E5%9C%92%E5%8D%80%E7%99%BC%E5%B1%95",
    "lang": "zh-TW",
    "desc": "從一座稻田上的賭注到年產值五兆的矽盾——台灣三大科學園區如何用四十五年改寫全球科技地圖",
    "city": "新竹"
  },
  {
    "title": "Taiwan’s Five Major Landforms: From Mountain Spines to Fertile Plains",
    "lat": 23.477238,
    "lng": 120.951124,
    "category": "geography",
    "region": "central",
    "link": "/en/geography/taiwan-five-major-landforms-and-geographic-structure",
    "lang": "en",
    "desc": "A cultural-geographic tour of Taiwan’s five landform types and five mountain ranges, explaining how an asymmetric island shaped nature, settlement, and identity.",
    "city": "南投"
  },
  {
    "title": "La culture populaire des Penghu",
    "lat": 23.573872,
    "lng": 119.573794,
    "category": "fr",
    "region": "islands",
    "link": "/fr/penghu-folk-culture",
    "lang": "zh-TW",
    "desc": "Chaque année, à la pleine lune du premier mois lunaire, plus de deux cents temples des Penghu procèdent simultanément au rituel de la tortue de riz, certaines pesant jusqu'à vingt-trois tonnes. Sur cet archipel balayé depuis quatre siècles par la mousson du nord-est, les insulaires implorent le retour des pêcheurs partis en mer, capturent le poisson dans des enclos de pierres et chantent leur solitude hivernale en improvisant des couplets.",
    "city": "澎湖"
  },